{
"type": "FeatureCollection",
"name": "sql_statement",
"crs": { "type": "name", "properties": { "name": "urn:ogc:def:crs:OGC:1.3:CRS84" } },
"features": [
{ "type": "Feature", "properties": { "id": 1, "stop_id": 390, "stop_code": 10390, "stop_name": "19th Avenue & Holloway St", "stop_desc": " ", "stop_lat": 37.72119, "stop_lon": -122.475096, "zone_id": " ", "stop_url": null }, "geometry": { "type": "Point", "coordinates": [ -122.475096, 37.72119 ] } },
{ "type": "Feature", "properties": { "id": 2, "stop_id": 3016, "stop_code": 13016, "stop_name": "3rd St & 4th St  ", "stop_desc": " ", "stop_lat": 37.772618, "stop_lon": -122.389786, "zone_id": " ", "stop_url": null }, "geometry": { "type": "Point", "coordinates": [ -122.389786, 37.772618 ] } },
{ "type": "Feature", "properties": { "id": 3, "stop_id": 3018, "stop_code": 13018, "stop_name": "Bacon St & San Bruno Ave   ", "stop_desc": " ", "stop_lat": 37.727739, "stop_lon": -122.40324, "zone_id": " ", "stop_url": null }, "geometry": { "type": "Point", "coordinates": [ -122.40324, 37.727739 ] } },
{ "type": "Feature", "properties": { "id": 4, "stop_id": 3019, "stop_code": 13019, "stop_name": "Bacon St & San Bruno Ave  ", "stop_desc": " ", "stop_lat": 37.727645, "stop_lon": -122.403269, "zone_id": " ", "stop_url": null }, "geometry": { "type": "Point", "coordinates": [ -122.403269, 37.727645 ] } },
{ "type": "Feature", "properties": { "id": 5, "stop_id": 3020, "stop_code": 13020, "stop_name": "Bacon St & Somerset St  ", "stop_desc": " ", "stop_lat": 37.72667, "stop_lon": -122.40746, "zone_id": " ", "stop_url": null }, "geometry": { "type": "Point", "coordinates": [ -122.40746, 37.72667 ] } },
{ "type": "Feature", "properties": { "id": 6, "stop_id": 3021, "stop_code": 13021, "stop_name": "Bacon St & Somerset St  ", "stop_desc": " ", "stop_lat": 37.72654, "stop_lon": -122.40766, "zone_id": " ", "stop_url": null }, "geometry": { "type": "Point", "coordinates": [ -122.40766, 37.72654 ] } },
{ "type": "Feature", "properties": { "id": 7, "stop_id": 3023, "stop_code": 13023, "stop_name": "Baker Beach Parking Lot SW", "stop_desc": " ", "stop_lat": 37.790249, "stop_lon": -122.482263, "zone_id": " ", "stop_url": null }, "geometry": { "type": "Point", "coordinates": [ -122.482263, 37.790249 ] } },
{ "type": "Feature", "properties": { "id": 8, "stop_id": 3025, "stop_code": 13025, "stop_name": "Battery St & Broadway  ", "stop_desc": " ", "stop_lat": 37.798311, "stop_lon": -122.401093, "zone_id": " ", "stop_url": null }, "geometry": { "type": "Point", "coordinates": [ -122.401093, 37.798311 ] } },
{ "type": "Feature", "properties": { "id": 9, "stop_id": 3030, "stop_code": 13030, "stop_name": "Battery St & Jackson St  ", "stop_desc": " ", "stop_lat": 37.79686, "stop_lon": -122.40077, "zone_id": " ", "stop_url": null }, "geometry": { "type": "Point", "coordinates": [ -122.40077, 37.79686 ] } },
{ "type": "Feature", "properties": { "id": 10, "stop_id": 3031, "stop_code": 13031, "stop_name": "Bay St & Midway St  ", "stop_desc": " ", "stop_lat": 37.806094, "stop_lon": -122.409161, "zone_id": " ", "stop_url": null }, "geometry": { "type": "Point", "coordinates": [ -122.409161, 37.806094 ] } },
{ "type": "Feature", "properties": { "id": 11, "stop_id": 3082, "stop_code": 13082, "stop_name": "Broadway & Grant Ave  ", "stop_desc": " ", "stop_lat": 37.797831, "stop_lon": -122.406345, "zone_id": " ", "stop_url": null }, "geometry": { "type": "Point", "coordinates": [ -122.406345, 37.797831 ] } },
{ "type": "Feature", "properties": { "id": 12, "stop_id": 3084, "stop_code": 13084, "stop_name": "Broadway & Montgomery St  ", "stop_desc": " ", "stop_lat": 37.798134, "stop_lon": -122.40396, "zone_id": " ", "stop_url": null }, "geometry": { "type": "Point", "coordinates": [ -122.40396, 37.798134 ] } },
{ "type": "Feature", "properties": { "id": 13, "stop_id": 3085, "stop_code": 13085, "stop_name": "Broadway & Steiner St  ", "stop_desc": " ", "stop_lat": 37.794131, "stop_lon": -122.436442, "zone_id": " ", "stop_url": null }, "geometry": { "type": "Point", "coordinates": [ -122.436442, 37.794131 ] } },
{ "type": "Feature", "properties": { "id": 14, "stop_id": 3086, "stop_code": 13086, "stop_name": "Broadway & Steiner St  ", "stop_desc": " ", "stop_lat": 37.794056, "stop_lon": -122.436278, "zone_id": " ", "stop_url": null }, "geometry": { "type": "Point", "coordinates": [ -122.436278, 37.794056 ] } },
{ "type": "Feature", "properties": { "id": 15, "stop_id": 3087, "stop_code": 13087, "stop_name": "Broadway & Stockton St  ", "stop_desc": " ", "stop_lat": 37.797591, "stop_lon": -122.408294, "zone_id": " ", "stop_url": null }, "geometry": { "type": "Point", "coordinates": [ -122.408294, 37.797591 ] } },
{ "type": "Feature", "properties": { "id": 16, "stop_id": 3089, "stop_code": 13089, "stop_name": "Beale St & Mission St   ", "stop_desc": " ", "stop_lat": 37.791939, "stop_lon": -122.396879, "zone_id": " ", "stop_url": null }, "geometry": { "type": "Point", "coordinates": [ -122.396879, 37.791939 ] } },
{ "type": "Feature", "properties": { "id": 17, "stop_id": 3092, "stop_code": 13092, "stop_name": "Beach St & Mason St  ", "stop_desc": " ", "stop_lat": 37.807407, "stop_lon": -122.414125, "zone_id": " ", "stop_url": null }, "geometry": { "type": "Point", "coordinates": [ -122.414125, 37.807407 ] } },
{ "type": "Feature", "properties": { "id": 18, "stop_id": 3093, "stop_code": 13093, "stop_name": "Beach St & Polk St   ", "stop_desc": " ", "stop_lat": 37.806375, "stop_lon": -122.423195, "zone_id": " ", "stop_url": null }, "geometry": { "type": "Point", "coordinates": [ -122.423195, 37.806375 ] } },
{ "type": "Feature", "properties": { "id": 19, "stop_id": 3095, "stop_code": 13095, "stop_name": "Beach St & Stockton St  ", "stop_desc": " ", "stop_lat": 37.807841, "stop_lon": -122.41081, "zone_id": " ", "stop_url": null }, "geometry": { "type": "Point", "coordinates": [ -122.41081, 37.807841 ] } },
{ "type": "Feature", "properties": { "id": 20, "stop_id": 3103, "stop_code": 13103, "stop_name": "3rd St & 20th St  ", "stop_desc": " ", "stop_lat": 37.76079, "stop_lon": -122.38846, "zone_id": " ", "stop_url": null }, "geometry": { "type": "Point", "coordinates": [ -122.38846, 37.76079 ] } },
{ "type": "Feature", "properties": { "id": 21, "stop_id": 3104, "stop_code": 13104, "stop_name": "3rd St & 20th St  ", "stop_desc": " ", "stop_lat": 37.76059, "stop_lon": -122.3887, "zone_id": " ", "stop_url": null }, "geometry": { "type": "Point", "coordinates": [ -122.3887, 37.76059 ] } },
{ "type": "Feature", "properties": { "id": 22, "stop_id": 3107, "stop_code": 13107, "stop_name": "3rd St & 23rd St  ", "stop_desc": " ", "stop_lat": 37.75569, "stop_lon": -122.3879, "zone_id": " ", "stop_url": null }, "geometry": { "type": "Point", "coordinates": [ -122.3879, 37.75569 ] } },
{ "type": "Feature", "properties": { "id": 23, "stop_id": 3108, "stop_code": 13108, "stop_name": "3rd St & 23rd St  ", "stop_desc": " ", "stop_lat": 37.75506, "stop_lon": -122.3881, "zone_id": " ", "stop_url": null }, "geometry": { "type": "Point", "coordinates": [ -122.3881, 37.75506 ] } },
{ "type": "Feature", "properties": { "id": 24, "stop_id": 3113, "stop_code": 13113, "stop_name": "3rd St & Bayview St  ", "stop_desc": " ", "stop_lat": 37.7322, "stop_lon": -122.391731, "zone_id": " ", "stop_url": null }, "geometry": { "type": "Point", "coordinates": [ -122.391731, 37.7322 ] } },
{ "type": "Feature", "properties": { "id": 25, "stop_id": 3114, "stop_code": 13114, "stop_name": "3rd St & Brannan St   ", "stop_desc": " ", "stop_lat": 37.779285, "stop_lon": -122.393185, "zone_id": " ", "stop_url": null }, "geometry": { "type": "Point", "coordinates": [ -122.393185, 37.779285 ] } },
{ "type": "Feature", "properties": { "id": 26, "stop_id": 3115, "stop_code": 13115, "stop_name": "3rd St & Carroll Ave   ", "stop_desc": " ", "stop_lat": 37.72567, "stop_lon": -122.3943, "zone_id": " ", "stop_url": null }, "geometry": { "type": "Point", "coordinates": [ -122.3943, 37.72567 ] } },
{ "type": "Feature", "properties": { "id": 27, "stop_id": 3116, "stop_code": 13116, "stop_name": "3rd St & Carroll Ave   ", "stop_desc": " ", "stop_lat": 37.7253, "stop_lon": -122.3942, "zone_id": " ", "stop_url": null }, "geometry": { "type": "Point", "coordinates": [ -122.3942, 37.7253 ] } },
{ "type": "Feature", "properties": { "id": 28, "stop_id": 3123, "stop_code": 13123, "stop_name": "3rd St & Evans Ave  ", "stop_desc": " ", "stop_lat": 37.74244, "stop_lon": -122.38815, "zone_id": " ", "stop_url": null }, "geometry": { "type": "Point", "coordinates": [ -122.38815, 37.74244 ] } },
{ "type": "Feature", "properties": { "id": 29, "stop_id": 3124, "stop_code": 13124, "stop_name": "3rd St & Folsom St   ", "stop_desc": " ", "stop_lat": 37.784204, "stop_lon": -122.399326, "zone_id": " ", "stop_url": null }, "geometry": { "type": "Point", "coordinates": [ -122.399326, 37.784204 ] } },
{ "type": "Feature", "properties": { "id": 30, "stop_id": 3127, "stop_code": 13127, "stop_name": "3rd St & Hudson Ave   ", "stop_desc": " ", "stop_lat": 37.74012, "stop_lon": -122.3887, "zone_id": " ", "stop_url": null }, "geometry": { "type": "Point", "coordinates": [ -122.3887, 37.74012 ] } },
{ "type": "Feature", "properties": { "id": 31, "stop_id": 3128, "stop_code": 13128, "stop_name": "3rd St & Howard St   ", "stop_desc": " ", "stop_lat": 37.784945, "stop_lon": -122.400254, "zone_id": " ", "stop_url": null }, "geometry": { "type": "Point", "coordinates": [ -122.400254, 37.784945 ] } },
{ "type": "Feature", "properties": { "id": 32, "stop_id": 3129, "stop_code": 13129, "stop_name": "3rd St & Innes Ave   ", "stop_desc": " ", "stop_lat": 37.73932, "stop_lon": -122.38926, "zone_id": " ", "stop_url": null }, "geometry": { "type": "Point", "coordinates": [ -122.38926, 37.73932 ] } },
{ "type": "Feature", "properties": { "id": 33, "stop_id": 3134, "stop_code": 13134, "stop_name": "3rd St & La Salle Ave   ", "stop_desc": " ", "stop_lat": 37.737213, "stop_lon": -122.389803, "zone_id": " ", "stop_url": null }, "geometry": { "type": "Point", "coordinates": [ -122.389803, 37.737213 ] } },
{ "type": "Feature", "properties": { "id": 34, "stop_id": 3135, "stop_code": 13135, "stop_name": "3rd St & Kirkwood Ave", "stop_desc": " ", "stop_lat": 37.737927, "stop_lon": -122.389619, "zone_id": " ", "stop_url": null }, "geometry": { "type": "Point", "coordinates": [ -122.389619, 37.737927 ] } },
{ "type": "Feature", "properties": { "id": 35, "stop_id": 3136, "stop_code": 13136, "stop_name": "3rd St & Stevenson St", "stop_desc": " ", "stop_lat": 37.786373, "stop_lon": -122.40211, "zone_id": " ", "stop_url": null }, "geometry": { "type": "Point", "coordinates": [ -122.40211, 37.786373 ] } },
{ "type": "Feature", "properties": { "id": 36, "stop_id": 3141, "stop_code": 13141, "stop_name": "3rd St & Palou Ave   ", "stop_desc": " ", "stop_lat": 37.734091, "stop_lon": -122.390928, "zone_id": " ", "stop_url": null }, "geometry": { "type": "Point", "coordinates": [ -122.390928, 37.734091 ] } },
{ "type": "Feature", "properties": { "id": 37, "stop_id": 3143, "stop_code": 13143, "stop_name": "3rd St & Oakdale Ave", "stop_desc": " ", "stop_lat": 37.734787, "stop_lon": -122.390721, "zone_id": " ", "stop_url": null }, "geometry": { "type": "Point", "coordinates": [ -122.390721, 37.734787 ] } },
{ "type": "Feature", "properties": { "id": 38, "stop_id": 3144, "stop_code": 13144, "stop_name": "3rd St & Bryant St", "stop_desc": " ", "stop_lat": 37.781651, "stop_lon": -122.396198, "zone_id": " ", "stop_url": null }, "geometry": { "type": "Point", "coordinates": [ -122.396198, 37.781651 ] } },
{ "type": "Feature", "properties": { "id": 39, "stop_id": 3145, "stop_code": 13145, "stop_name": "3rd St & Revere Ave   ", "stop_desc": " ", "stop_lat": 37.73225, "stop_lon": -122.39146, "zone_id": " ", "stop_url": null }, "geometry": { "type": "Point", "coordinates": [ -122.39146, 37.73225 ] } },
{ "type": "Feature", "properties": { "id": 40, "stop_id": 3146, "stop_code": 13146, "stop_name": "3rd St & Salinas Ave  ", "stop_desc": " ", "stop_lat": 37.720861, "stop_lon": -122.396459, "zone_id": " ", "stop_url": null }, "geometry": { "type": "Point", "coordinates": [ -122.396459, 37.720861 ] } },
{ "type": "Feature", "properties": { "id": 41, "stop_id": 3149, "stop_code": 13149, "stop_name": "3rd St & Van Dyke Ave   ", "stop_desc": " ", "stop_lat": 37.729238, "stop_lon": -122.392593, "zone_id": " ", "stop_url": null }, "geometry": { "type": "Point", "coordinates": [ -122.392593, 37.729238 ] } },
{ "type": "Feature", "properties": { "id": 42, "stop_id": 3150, "stop_code": 13150, "stop_name": "3rd St & Williams Ave  ", "stop_desc": " ", "stop_lat": 37.729166, "stop_lon": -122.392776, "zone_id": " ", "stop_url": null }, "geometry": { "type": "Point", "coordinates": [ -122.392776, 37.729166 ] } },
{ "type": "Feature", "properties": { "id": 43, "stop_id": 3153, "stop_code": 13153, "stop_name": "4th St & 3rd St   ", "stop_desc": " ", "stop_lat": 37.772966, "stop_lon": -122.389694, "zone_id": " ", "stop_url": null }, "geometry": { "type": "Point", "coordinates": [ -122.389694, 37.772966 ] } },
{ "type": "Feature", "properties": { "id": 44, "stop_id": 3156, "stop_code": 13156, "stop_name": "4th St & Brannan St   ", "stop_desc": " ", "stop_lat": 37.778305, "stop_lon": -122.396602, "zone_id": " ", "stop_url": null }, "geometry": { "type": "Point", "coordinates": [ -122.396602, 37.778305 ] } },
{ "type": "Feature", "properties": { "id": 45, "stop_id": 3158, "stop_code": 13158, "stop_name": "4th St & Folsom St   ", "stop_desc": " ", "stop_lat": 37.781804, "stop_lon": -122.401012, "zone_id": " ", "stop_url": null }, "geometry": { "type": "Point", "coordinates": [ -122.401012, 37.781804 ] } },
{ "type": "Feature", "properties": { "id": 46, "stop_id": 3159, "stop_code": 13159, "stop_name": "4th St & Howard St   ", "stop_desc": " ", "stop_lat": 37.783036, "stop_lon": -122.402548, "zone_id": " ", "stop_url": null }, "geometry": { "type": "Point", "coordinates": [ -122.402548, 37.783036 ] } },
{ "type": "Feature", "properties": { "id": 47, "stop_id": 3160, "stop_code": 13160, "stop_name": "4th St & Mission St   ", "stop_desc": " ", "stop_lat": 37.784259, "stop_lon": -122.404117, "zone_id": " ", "stop_url": null }, "geometry": { "type": "Point", "coordinates": [ -122.404117, 37.784259 ] } },
{ "type": "Feature", "properties": { "id": 48, "stop_id": 3161, "stop_code": 13161, "stop_name": "4th St & Market St   ", "stop_desc": " ", "stop_lat": 37.785527, "stop_lon": -122.405675, "zone_id": " ", "stop_url": null }, "geometry": { "type": "Point", "coordinates": [ -122.405675, 37.785527 ] } },
{ "type": "Feature", "properties": { "id": 49, "stop_id": 3164, "stop_code": 13164, "stop_name": "4TH ST & TOWNSEND ST", "stop_desc": " ", "stop_lat": 37.776894, "stop_lon": -122.394895, "zone_id": " ", "stop_url": null }, "geometry": { "type": "Point", "coordinates": [ -122.394895, 37.776894 ] } },
{ "type": "Feature", "properties": { "id": 50, "stop_id": 3183, "stop_code": 13183, "stop_name": "6th Ave & Fulton St  ", "stop_desc": " ", "stop_lat": 37.773809, "stop_lon": -122.463745, "zone_id": " ", "stop_url": null }, "geometry": { "type": "Point", "coordinates": [ -122.463745, 37.773809 ] } },
{ "type": "Feature", "properties": { "id": 51, "stop_id": 3191, "stop_code": 13191, "stop_name": "7th St & Brannan St   ", "stop_desc": " ", "stop_lat": 37.773266, "stop_lon": -122.403367, "zone_id": " ", "stop_url": null }, "geometry": { "type": "Point", "coordinates": [ -122.403367, 37.773266 ] } },
{ "type": "Feature", "properties": { "id": 52, "stop_id": 3192, "stop_code": 13192, "stop_name": "7th St & Folsom St   ", "stop_desc": " ", "stop_lat": 37.776864, "stop_lon": -122.407904, "zone_id": " ", "stop_url": null }, "geometry": { "type": "Point", "coordinates": [ -122.407904, 37.776864 ] } },
{ "type": "Feature", "properties": { "id": 53, "stop_id": 3193, "stop_code": 13193, "stop_name": "7th St & Harrison St   ", "stop_desc": " ", "stop_lat": 37.77573, "stop_lon": -122.40646, "zone_id": " ", "stop_url": null }, "geometry": { "type": "Point", "coordinates": [ -122.40646, 37.77573 ] } },
{ "type": "Feature", "properties": { "id": 54, "stop_id": 3194, "stop_code": 13194, "stop_name": "7th St & Howard St   ", "stop_desc": " ", "stop_lat": 37.777935, "stop_lon": -122.409222, "zone_id": " ", "stop_url": null }, "geometry": { "type": "Point", "coordinates": [ -122.409222, 37.777935 ] } },
{ "type": "Feature", "properties": { "id": 55, "stop_id": 3195, "stop_code": 13195, "stop_name": "7th St & Mission St   ", "stop_desc": " ", "stop_lat": 37.779327, "stop_lon": -122.411032, "zone_id": " ", "stop_url": null }, "geometry": { "type": "Point", "coordinates": [ -122.411032, 37.779327 ] } },
{ "type": "Feature", "properties": { "id": 56, "stop_id": 3196, "stop_code": 13196, "stop_name": "7th St & Market St   ", "stop_desc": " ", "stop_lat": 37.780309, "stop_lon": -122.412395, "zone_id": " ", "stop_url": null }, "geometry": { "type": "Point", "coordinates": [ -122.412395, 37.780309 ] } },
{ "type": "Feature", "properties": { "id": 57, "stop_id": 3197, "stop_code": 13197, "stop_name": "7th St & Townsend St   ", "stop_desc": " ", "stop_lat": 37.772034, "stop_lon": -122.401821, "zone_id": " ", "stop_url": null }, "geometry": { "type": "Point", "coordinates": [ -122.401821, 37.772034 ] } },
{ "type": "Feature", "properties": { "id": 58, "stop_id": 3203, "stop_code": 13203, "stop_name": "8th St & Brannan St   ", "stop_desc": " ", "stop_lat": 37.771179, "stop_lon": -122.405386, "zone_id": " ", "stop_url": null }, "geometry": { "type": "Point", "coordinates": [ -122.405386, 37.771179 ] } },
{ "type": "Feature", "properties": { "id": 59, "stop_id": 3204, "stop_code": 13204, "stop_name": "8th St & Bryant St   ", "stop_desc": " ", "stop_lat": 37.772536, "stop_lon": -122.407127, "zone_id": " ", "stop_url": null }, "geometry": { "type": "Point", "coordinates": [ -122.407127, 37.772536 ] } },
{ "type": "Feature", "properties": { "id": 60, "stop_id": 3205, "stop_code": 13205, "stop_name": "8th St & Folsom St   ", "stop_desc": " ", "stop_lat": 37.774767, "stop_lon": -122.409922, "zone_id": " ", "stop_url": null }, "geometry": { "type": "Point", "coordinates": [ -122.409922, 37.774767 ] } },
{ "type": "Feature", "properties": { "id": 61, "stop_id": 3206, "stop_code": 13206, "stop_name": "8th St & Harrison St   ", "stop_desc": " ", "stop_lat": 37.773536, "stop_lon": -122.408376, "zone_id": " ", "stop_url": null }, "geometry": { "type": "Point", "coordinates": [ -122.408376, 37.773536 ] } },
{ "type": "Feature", "properties": { "id": 62, "stop_id": 3208, "stop_code": 13208, "stop_name": "8th St & Mission St   ", "stop_desc": " ", "stop_lat": 37.77724, "stop_lon": -122.413027, "zone_id": " ", "stop_url": null }, "geometry": { "type": "Point", "coordinates": [ -122.413027, 37.77724 ] } },
{ "type": "Feature", "properties": { "id": 63, "stop_id": 3209, "stop_code": 13209, "stop_name": "8th St & Market St   ", "stop_desc": " ", "stop_lat": 37.778498, "stop_lon": -122.414597, "zone_id": " ", "stop_url": null }, "geometry": { "type": "Point", "coordinates": [ -122.414597, 37.778498 ] } },
{ "type": "Feature", "properties": { "id": 64, "stop_id": 3229, "stop_code": 13229, "stop_name": "9th St & Avenue H  ", "stop_desc": " ", "stop_lat": 37.825196, "stop_lon": -122.370063, "zone_id": " ", "stop_url": null }, "geometry": { "type": "Point", "coordinates": [ -122.370063, 37.825196 ] } },
{ "type": "Feature", "properties": { "id": 65, "stop_id": 3235, "stop_code": 13235, "stop_name": "11th St & Bryant St   ", "stop_desc": " ", "stop_lat": 37.769807, "stop_lon": -122.4113, "zone_id": " ", "stop_url": null }, "geometry": { "type": "Point", "coordinates": [ -122.4113, 37.769807 ] } },
{ "type": "Feature", "properties": { "id": 66, "stop_id": 3238, "stop_code": 13238, "stop_name": "11th St & Harrison St   ", "stop_desc": " ", "stop_lat": 37.770691, "stop_lon": -122.412526, "zone_id": " ", "stop_url": null }, "geometry": { "type": "Point", "coordinates": [ -122.412526, 37.770691 ] } },
{ "type": "Feature", "properties": { "id": 67, "stop_id": 3239, "stop_code": 13239, "stop_name": "11th St & Harrison St   ", "stop_desc": " ", "stop_lat": 37.770557, "stop_lon": -122.412492, "zone_id": " ", "stop_url": null }, "geometry": { "type": "Point", "coordinates": [ -122.412492, 37.770557 ] } },
{ "type": "Feature", "properties": { "id": 68, "stop_id": 3240, "stop_code": 13240, "stop_name": "11th St & Howard St   ", "stop_desc": " ", "stop_lat": 37.77333, "stop_lon": -122.41573, "zone_id": " ", "stop_url": null }, "geometry": { "type": "Point", "coordinates": [ -122.41573, 37.77333 ] } },
{ "type": "Feature", "properties": { "id": 69, "stop_id": 3241, "stop_code": 13241, "stop_name": "11th St & Howard St   ", "stop_desc": " ", "stop_lat": 37.77283, "stop_lon": -122.41538, "zone_id": " ", "stop_url": null }, "geometry": { "type": "Point", "coordinates": [ -122.41538, 37.77283 ] } },
{ "type": "Feature", "properties": { "id": 70, "stop_id": 3243, "stop_code": 13243, "stop_name": "11th St & Mission St   ", "stop_desc": " ", "stop_lat": 37.774038, "stop_lon": -122.416891, "zone_id": " ", "stop_url": null }, "geometry": { "type": "Point", "coordinates": [ -122.416891, 37.774038 ] } },
{ "type": "Feature", "properties": { "id": 71, "stop_id": 3244, "stop_code": 13244, "stop_name": "11th St & Market St   ", "stop_desc": " ", "stop_lat": 37.7755, "stop_lon": -122.41852, "zone_id": " ", "stop_url": null }, "geometry": { "type": "Point", "coordinates": [ -122.41852, 37.7755 ] } },
{ "type": "Feature", "properties": { "id": 72, "stop_id": 3245, "stop_code": 13245, "stop_name": "11th St & Market St   ", "stop_desc": " ", "stop_lat": 37.775368, "stop_lon": -122.418575, "zone_id": " ", "stop_url": null }, "geometry": { "type": "Point", "coordinates": [ -122.418575, 37.775368 ] } },
{ "type": "Feature", "properties": { "id": 73, "stop_id": 3266, "stop_code": 13266, "stop_name": "15th Ave & Taraval St  ", "stop_desc": " ", "stop_lat": 37.743124, "stop_lon": -122.471297, "zone_id": " ", "stop_url": null }, "geometry": { "type": "Point", "coordinates": [ -122.471297, 37.743124 ] } },
{ "type": "Feature", "properties": { "id": 74, "stop_id": 3267, "stop_code": 13267, "stop_name": "15th Ave & Taraval St  ", "stop_desc": " ", "stop_lat": 37.743069, "stop_lon": -122.471405, "zone_id": " ", "stop_url": null }, "geometry": { "type": "Point", "coordinates": [ -122.471405, 37.743069 ] } },
{ "type": "Feature", "properties": { "id": 75, "stop_id": 3281, "stop_code": 13281, "stop_name": "16th St & Bryant St  ", "stop_desc": " ", "stop_lat": 37.765658, "stop_lon": -122.410294, "zone_id": " ", "stop_url": null }, "geometry": { "type": "Point", "coordinates": [ -122.410294, 37.765658 ] } },
{ "type": "Feature", "properties": { "id": 76, "stop_id": 3282, "stop_code": 13282, "stop_name": "16th St & Bryant St  ", "stop_desc": " ", "stop_lat": 37.765595, "stop_lon": -122.410408, "zone_id": " ", "stop_url": null }, "geometry": { "type": "Point", "coordinates": [ -122.410408, 37.765595 ] } },
{ "type": "Feature", "properties": { "id": 77, "stop_id": 3283, "stop_code": 13283, "stop_name": "16th St & Church St  ", "stop_desc": " ", "stop_lat": 37.764579, "stop_lon": -122.428523, "zone_id": " ", "stop_url": null }, "geometry": { "type": "Point", "coordinates": [ -122.428523, 37.764579 ] } },
{ "type": "Feature", "properties": { "id": 78, "stop_id": 3284, "stop_code": 13284, "stop_name": "16th St & Dolores St  ", "stop_desc": " ", "stop_lat": 37.764731, "stop_lon": -122.426156, "zone_id": " ", "stop_url": null }, "geometry": { "type": "Point", "coordinates": [ -122.426156, 37.764731 ] } },
{ "type": "Feature", "properties": { "id": 79, "stop_id": 3285, "stop_code": 13285, "stop_name": "16th St & Dolores St  ", "stop_desc": " ", "stop_lat": 37.764575, "stop_lon": -122.426579, "zone_id": " ", "stop_url": null }, "geometry": { "type": "Point", "coordinates": [ -122.426579, 37.764575 ] } },
{ "type": "Feature", "properties": { "id": 80, "stop_id": 3286, "stop_code": 13286, "stop_name": "16th St & Guerrero St  ", "stop_desc": " ", "stop_lat": 37.764853, "stop_lon": -122.423959, "zone_id": " ", "stop_url": null }, "geometry": { "type": "Point", "coordinates": [ -122.423959, 37.764853 ] } },
{ "type": "Feature", "properties": { "id": 81, "stop_id": 3287, "stop_code": 13287, "stop_name": "16th St & Guerrero St  ", "stop_desc": " ", "stop_lat": 37.76472, "stop_lon": -122.424256, "zone_id": " ", "stop_url": null }, "geometry": { "type": "Point", "coordinates": [ -122.424256, 37.76472 ] } },
{ "type": "Feature", "properties": { "id": 82, "stop_id": 3288, "stop_code": 13288, "stop_name": "16th St & Harrison St  ", "stop_desc": " ", "stop_lat": 37.765523, "stop_lon": -122.412976, "zone_id": " ", "stop_url": null }, "geometry": { "type": "Point", "coordinates": [ -122.412976, 37.765523 ] } },
{ "type": "Feature", "properties": { "id": 83, "stop_id": 3289, "stop_code": 13289, "stop_name": "16th St & Harrison St  ", "stop_desc": " ", "stop_lat": 37.765377, "stop_lon": -122.41329, "zone_id": " ", "stop_url": null }, "geometry": { "type": "Point", "coordinates": [ -122.41329, 37.765377 ] } },
{ "type": "Feature", "properties": { "id": 84, "stop_id": 3291, "stop_code": 13291, "stop_name": "16th St & Mission St  ", "stop_desc": " ", "stop_lat": 37.765152, "stop_lon": -122.419611, "zone_id": " ", "stop_url": null }, "geometry": { "type": "Point", "coordinates": [ -122.419611, 37.765152 ] } },
{ "type": "Feature", "properties": { "id": 85, "stop_id": 3293, "stop_code": 13293, "stop_name": "16th St & Mission St  ", "stop_desc": " ", "stop_lat": 37.764983, "stop_lon": -122.419835, "zone_id": " ", "stop_url": null }, "geometry": { "type": "Point", "coordinates": [ -122.419835, 37.764983 ] } },
{ "type": "Feature", "properties": { "id": 86, "stop_id": 3295, "stop_code": 13295, "stop_name": "16th St & Potrero Ave  ", "stop_desc": " ", "stop_lat": 37.7658, "stop_lon": -122.407624, "zone_id": " ", "stop_url": null }, "geometry": { "type": "Point", "coordinates": [ -122.407624, 37.7658 ] } },
{ "type": "Feature", "properties": { "id": 87, "stop_id": 3296, "stop_code": 13296, "stop_name": "16th St & Potrero Ave  ", "stop_desc": " ", "stop_lat": 37.765764, "stop_lon": -122.407612, "zone_id": " ", "stop_url": null }, "geometry": { "type": "Point", "coordinates": [ -122.407612, 37.765764 ] } },
{ "type": "Feature", "properties": { "id": 88, "stop_id": 3297, "stop_code": 13297, "stop_name": "16th St & San Bruno Ave  ", "stop_desc": " ", "stop_lat": 37.765861, "stop_lon": -122.405515, "zone_id": " ", "stop_url": null }, "geometry": { "type": "Point", "coordinates": [ -122.405515, 37.765861 ] } },
{ "type": "Feature", "properties": { "id": 89, "stop_id": 3299, "stop_code": 13299, "stop_name": "16th St & Shotwell St  ", "stop_desc": " ", "stop_lat": 37.765218, "stop_lon": -122.416048, "zone_id": " ", "stop_url": null }, "geometry": { "type": "Point", "coordinates": [ -122.416048, 37.765218 ] } },
{ "type": "Feature", "properties": { "id": 90, "stop_id": 3300, "stop_code": 13300, "stop_name": "16th St & Valencia St  ", "stop_desc": " ", "stop_lat": 37.764987, "stop_lon": -122.421746, "zone_id": " ", "stop_url": null }, "geometry": { "type": "Point", "coordinates": [ -122.421746, 37.764987 ] } },
{ "type": "Feature", "properties": { "id": 91, "stop_id": 3301, "stop_code": 13301, "stop_name": "16th St & Valencia St  ", "stop_desc": " ", "stop_lat": 37.764849, "stop_lon": -122.422056, "zone_id": " ", "stop_url": null }, "geometry": { "type": "Point", "coordinates": [ -122.422056, 37.764849 ] } },
{ "type": "Feature", "properties": { "id": 92, "stop_id": 3302, "stop_code": 13302, "stop_name": "16th St & Vermont St  ", "stop_desc": " ", "stop_lat": 37.766039, "stop_lon": -122.40469, "zone_id": " ", "stop_url": null }, "geometry": { "type": "Point", "coordinates": [ -122.40469, 37.766039 ] } },
{ "type": "Feature", "properties": { "id": 93, "stop_id": 3311, "stop_code": 13311, "stop_name": "17th St & Castro St  ", "stop_desc": " ", "stop_lat": 37.762576, "stop_lon": -122.434979, "zone_id": " ", "stop_url": null }, "geometry": { "type": "Point", "coordinates": [ -122.434979, 37.762576 ] } },
{ "type": "Feature", "properties": { "id": 94, "stop_id": 3312, "stop_code": 13312, "stop_name": "17th St & De Haro St  ", "stop_desc": " ", "stop_lat": 37.764904, "stop_lon": -122.401451, "zone_id": " ", "stop_url": null }, "geometry": { "type": "Point", "coordinates": [ -122.401451, 37.764904 ] } },
{ "type": "Feature", "properties": { "id": 95, "stop_id": 3313, "stop_code": 13313, "stop_name": "17th St & De Haro St  ", "stop_desc": " ", "stop_lat": 37.764771, "stop_lon": -122.401711, "zone_id": " ", "stop_url": null }, "geometry": { "type": "Point", "coordinates": [ -122.401711, 37.764771 ] } },
{ "type": "Feature", "properties": { "id": 96, "stop_id": 3317, "stop_code": 13317, "stop_name": "17th St & Kansas St  ", "stop_desc": " ", "stop_lat": 37.764727, "stop_lon": -122.403544, "zone_id": " ", "stop_url": null }, "geometry": { "type": "Point", "coordinates": [ -122.403544, 37.764727 ] } },
{ "type": "Feature", "properties": { "id": 97, "stop_id": 3321, "stop_code": 13321, "stop_name": "18th St & 3rd St  ", "stop_desc": " ", "stop_lat": 37.762992, "stop_lon": -122.388925, "zone_id": " ", "stop_url": null }, "geometry": { "type": "Point", "coordinates": [ -122.388925, 37.762992 ] } },
{ "type": "Feature", "properties": { "id": 98, "stop_id": 3324, "stop_code": 13324, "stop_name": "18th St & Connecticut St  ", "stop_desc": " ", "stop_lat": 37.76258, "stop_lon": -122.397352, "zone_id": " ", "stop_url": null }, "geometry": { "type": "Point", "coordinates": [ -122.397352, 37.76258 ] } },
{ "type": "Feature", "properties": { "id": 99, "stop_id": 3337, "stop_code": 13337, "stop_name": "18th St & Minnesota St  ", "stop_desc": " ", "stop_lat": 37.762874, "stop_lon": -122.390848, "zone_id": " ", "stop_url": null }, "geometry": { "type": "Point", "coordinates": [ -122.390848, 37.762874 ] } },
{ "type": "Feature", "properties": { "id": 100, "stop_id": 3342, "stop_code": 13342, "stop_name": "18th St & Pennsylvania Ave  ", "stop_desc": " ", "stop_lat": 37.762828, "stop_lon": -122.393471, "zone_id": " ", "stop_url": null }, "geometry": { "type": "Point", "coordinates": [ -122.393471, 37.762828 ] } },
{ "type": "Feature", "properties": { "id": 101, "stop_id": 3343, "stop_code": 13343, "stop_name": "18th St & Pennsylvania Ave  ", "stop_desc": " ", "stop_lat": 37.762732, "stop_lon": -122.39322, "zone_id": " ", "stop_url": null }, "geometry": { "type": "Point", "coordinates": [ -122.39322, 37.762732 ] } },
{ "type": "Feature", "properties": { "id": 102, "stop_id": 3346, "stop_code": 13346, "stop_name": "18th St & Texas St  ", "stop_desc": " ", "stop_lat": 37.762701, "stop_lon": -122.395422, "zone_id": " ", "stop_url": null }, "geometry": { "type": "Point", "coordinates": [ -122.395422, 37.762701 ] } },
{ "type": "Feature", "properties": { "id": 103, "stop_id": 3347, "stop_code": 13347, "stop_name": "18th St & Texas St  ", "stop_desc": " ", "stop_lat": 37.762621, "stop_lon": -122.39516, "zone_id": " ", "stop_url": null }, "geometry": { "type": "Point", "coordinates": [ -122.39516, 37.762621 ] } },
{ "type": "Feature", "properties": { "id": 104, "stop_id": 3354, "stop_code": 13354, "stop_name": "19th Ave & Eucalyptus Dr  ", "stop_desc": " ", "stop_lat": 37.731175, "stop_lon": -122.474962, "zone_id": " ", "stop_url": null }, "geometry": { "type": "Point", "coordinates": [ -122.474962, 37.731175 ] } },
{ "type": "Feature", "properties": { "id": 105, "stop_id": 3355, "stop_code": 13355, "stop_name": "19th Ave & Eucalyptus Dr  ", "stop_desc": " ", "stop_lat": 37.73097, "stop_lon": -122.47472, "zone_id": " ", "stop_url": null }, "geometry": { "type": "Point", "coordinates": [ -122.47472, 37.73097 ] } },
{ "type": "Feature", "properties": { "id": 106, "stop_id": 3356, "stop_code": 13356, "stop_name": "19th Ave & Holloway Ave  ", "stop_desc": " ", "stop_lat": 37.72111, "stop_lon": -122.475302, "zone_id": " ", "stop_url": null }, "geometry": { "type": "Point", "coordinates": [ -122.475302, 37.72111 ] } },
{ "type": "Feature", "properties": { "id": 107, "stop_id": 3357, "stop_code": 13357, "stop_name": "19TH AVE & Holloway Ave", "stop_desc": " ", "stop_lat": 37.72094, "stop_lon": -122.475004, "zone_id": " ", "stop_url": null }, "geometry": { "type": "Point", "coordinates": [ -122.475004, 37.72094 ] } },
{ "type": "Feature", "properties": { "id": 108, "stop_id": 3359, "stop_code": 13359, "stop_name": "19th Ave & Irving St  ", "stop_desc": " ", "stop_lat": 37.76368, "stop_lon": -122.47731, "zone_id": " ", "stop_url": null }, "geometry": { "type": "Point", "coordinates": [ -122.47731, 37.76368 ] } },
{ "type": "Feature", "properties": { "id": 109, "stop_id": 3360, "stop_code": 13360, "stop_name": "19th Ave & Irving St  ", "stop_desc": " ", "stop_lat": 37.76343, "stop_lon": -122.47704, "zone_id": " ", "stop_url": null }, "geometry": { "type": "Point", "coordinates": [ -122.47704, 37.76343 ] } },
{ "type": "Feature", "properties": { "id": 110, "stop_id": 3361, "stop_code": 13361, "stop_name": "19th Ave & Junipero Serra Blvd ", "stop_desc": " ", "stop_lat": 37.716889, "stop_lon": -122.472275, "zone_id": " ", "stop_url": null }, "geometry": { "type": "Point", "coordinates": [ -122.472275, 37.716889 ] } },
{ "type": "Feature", "properties": { "id": 111, "stop_id": 3362, "stop_code": 13362, "stop_name": "19th Ave & Junipero Serra Blvd ", "stop_desc": " ", "stop_lat": 37.71805, "stop_lon": -122.47318, "zone_id": " ", "stop_url": null }, "geometry": { "type": "Point", "coordinates": [ -122.47318, 37.71805 ] } },
{ "type": "Feature", "properties": { "id": 112, "stop_id": 3363, "stop_code": 13363, "stop_name": "19th Ave & Junipero Serra Blvd ", "stop_desc": " ", "stop_lat": 37.717323, "stop_lon": -122.47297, "zone_id": " ", "stop_url": null }, "geometry": { "type": "Point", "coordinates": [ -122.47297, 37.717323 ] } },
{ "type": "Feature", "properties": { "id": 113, "stop_id": 3364, "stop_code": 13364, "stop_name": "19th Ave & Judah St  ", "stop_desc": " ", "stop_lat": 37.7616, "stop_lon": -122.476932, "zone_id": " ", "stop_url": null }, "geometry": { "type": "Point", "coordinates": [ -122.476932, 37.7616 ] } },
{ "type": "Feature", "properties": { "id": 114, "stop_id": 3365, "stop_code": 13365, "stop_name": "19th Ave & Judah St  ", "stop_desc": " ", "stop_lat": 37.7614, "stop_lon": -122.47711, "zone_id": " ", "stop_url": null }, "geometry": { "type": "Point", "coordinates": [ -122.47711, 37.7614 ] } },
{ "type": "Feature", "properties": { "id": 115, "stop_id": 3366, "stop_code": 13366, "stop_name": "19th Ave & Kirkham St  ", "stop_desc": " ", "stop_lat": 37.76015, "stop_lon": -122.47671, "zone_id": " ", "stop_url": null }, "geometry": { "type": "Point", "coordinates": [ -122.47671, 37.76015 ] } },
{ "type": "Feature", "properties": { "id": 116, "stop_id": 3367, "stop_code": 13367, "stop_name": "19th Ave & Kirkham St  ", "stop_desc": " ", "stop_lat": 37.75995, "stop_lon": -122.47695, "zone_id": " ", "stop_url": null }, "geometry": { "type": "Point", "coordinates": [ -122.47695, 37.75995 ] } },
{ "type": "Feature", "properties": { "id": 117, "stop_id": 3368, "stop_code": 13368, "stop_name": "19th Ave & Lawton St  ", "stop_desc": " ", "stop_lat": 37.75786, "stop_lon": -122.47654, "zone_id": " ", "stop_url": null }, "geometry": { "type": "Point", "coordinates": [ -122.47654, 37.75786 ] } },
{ "type": "Feature", "properties": { "id": 118, "stop_id": 3369, "stop_code": 13369, "stop_name": "19th Ave & Lawton St  ", "stop_desc": " ", "stop_lat": 37.757889, "stop_lon": -122.476782, "zone_id": " ", "stop_url": null }, "geometry": { "type": "Point", "coordinates": [ -122.476782, 37.757889 ] } },
{ "type": "Feature", "properties": { "id": 119, "stop_id": 3371, "stop_code": 13371, "stop_name": "19th Ave & Lincoln Way  ", "stop_desc": " ", "stop_lat": 37.765375, "stop_lon": -122.477404, "zone_id": " ", "stop_url": null }, "geometry": { "type": "Point", "coordinates": [ -122.477404, 37.765375 ] } },
{ "type": "Feature", "properties": { "id": 120, "stop_id": 3372, "stop_code": 13372, "stop_name": "19th Ave & Moraga St  ", "stop_desc": " ", "stop_lat": 37.75622, "stop_lon": -122.47669, "zone_id": " ", "stop_url": null }, "geometry": { "type": "Point", "coordinates": [ -122.47669, 37.75622 ] } },
{ "type": "Feature", "properties": { "id": 121, "stop_id": 3373, "stop_code": 13373, "stop_name": "19th Ave & Moraga St  ", "stop_desc": " ", "stop_lat": 37.75599, "stop_lon": -122.47642, "zone_id": " ", "stop_url": null }, "geometry": { "type": "Point", "coordinates": [ -122.47642, 37.75599 ] } },
{ "type": "Feature", "properties": { "id": 122, "stop_id": 3374, "stop_code": 13374, "stop_name": "19th Ave & Noriega St  ", "stop_desc": " ", "stop_lat": 37.75412, "stop_lon": -122.47629, "zone_id": " ", "stop_url": null }, "geometry": { "type": "Point", "coordinates": [ -122.47629, 37.75412 ] } },
{ "type": "Feature", "properties": { "id": 123, "stop_id": 3375, "stop_code": 13375, "stop_name": "19th Ave & Noriega St  ", "stop_desc": " ", "stop_lat": 37.75392, "stop_lon": -122.47653, "zone_id": " ", "stop_url": null }, "geometry": { "type": "Point", "coordinates": [ -122.47653, 37.75392 ] } },
{ "type": "Feature", "properties": { "id": 124, "stop_id": 3376, "stop_code": 13376, "stop_name": "19th Ave & Randolph St  ", "stop_desc": " ", "stop_lat": 37.7162, "stop_lon": -122.47167, "zone_id": " ", "stop_url": null }, "geometry": { "type": "Point", "coordinates": [ -122.47167, 37.7162 ] } },
{ "type": "Feature", "properties": { "id": 125, "stop_id": 3377, "stop_code": 13377, "stop_name": "19th Ave & Ocean Ave  ", "stop_desc": " ", "stop_lat": 37.73279, "stop_lon": -122.4751, "zone_id": " ", "stop_url": null }, "geometry": { "type": "Point", "coordinates": [ -122.4751, 37.73279 ] } },
{ "type": "Feature", "properties": { "id": 126, "stop_id": 3378, "stop_code": 13378, "stop_name": "19th Ave & Ocean Ave  ", "stop_desc": " ", "stop_lat": 37.73212, "stop_lon": -122.4748, "zone_id": " ", "stop_url": null }, "geometry": { "type": "Point", "coordinates": [ -122.4748, 37.73212 ] } },
{ "type": "Feature", "properties": { "id": 127, "stop_id": 3379, "stop_code": 13379, "stop_name": "19th Ave & Ortega St  ", "stop_desc": " ", "stop_lat": 37.75272, "stop_lon": -122.47619, "zone_id": " ", "stop_url": null }, "geometry": { "type": "Point", "coordinates": [ -122.47619, 37.75272 ] } },
{ "type": "Feature", "properties": { "id": 128, "stop_id": 3380, "stop_code": 13380, "stop_name": "19th Ave & Ortega St  ", "stop_desc": " ", "stop_lat": 37.75206, "stop_lon": -122.4764, "zone_id": " ", "stop_url": null }, "geometry": { "type": "Point", "coordinates": [ -122.4764, 37.75206 ] } },
{ "type": "Feature", "properties": { "id": 129, "stop_id": 3381, "stop_code": 13381, "stop_name": "19th Ave & Pacheco St  ", "stop_desc": " ", "stop_lat": 37.7504, "stop_lon": -122.47603, "zone_id": " ", "stop_url": null }, "geometry": { "type": "Point", "coordinates": [ -122.47603, 37.7504 ] } },
{ "type": "Feature", "properties": { "id": 130, "stop_id": 3382, "stop_code": 13382, "stop_name": "19th Ave & Pacheco St  ", "stop_desc": " ", "stop_lat": 37.7502, "stop_lon": -122.47627, "zone_id": " ", "stop_url": null }, "geometry": { "type": "Point", "coordinates": [ -122.47627, 37.7502 ] } },
{ "type": "Feature", "properties": { "id": 131, "stop_id": 3383, "stop_code": 13383, "stop_name": "19th Ave & Quintara St  ", "stop_desc": " ", "stop_lat": 37.74853, "stop_lon": -122.4759, "zone_id": " ", "stop_url": null }, "geometry": { "type": "Point", "coordinates": [ -122.4759, 37.74853 ] } },
{ "type": "Feature", "properties": { "id": 132, "stop_id": 3384, "stop_code": 13384, "stop_name": "19th Ave & Quintara St  ", "stop_desc": " ", "stop_lat": 37.7483, "stop_lon": -122.47614, "zone_id": " ", "stop_url": null }, "geometry": { "type": "Point", "coordinates": [ -122.47614, 37.7483 ] } },
{ "type": "Feature", "properties": { "id": 133, "stop_id": 3385, "stop_code": 13385, "stop_name": "19th Ave & Randolph St   ", "stop_desc": " ", "stop_lat": 37.714856, "stop_lon": -122.470249, "zone_id": " ", "stop_url": null }, "geometry": { "type": "Point", "coordinates": [ -122.470249, 37.714856 ] } },
{ "type": "Feature", "properties": { "id": 134, "stop_id": 3387, "stop_code": 13387, "stop_name": "19th Ave & Randolph St   ", "stop_desc": " ", "stop_lat": 37.714443, "stop_lon": -122.469998, "zone_id": " ", "stop_url": null }, "geometry": { "type": "Point", "coordinates": [ -122.469998, 37.714443 ] } },
{ "type": "Feature", "properties": { "id": 135, "stop_id": 3388, "stop_code": 13388, "stop_name": "19th Ave & Rivera St  ", "stop_desc": " ", "stop_lat": 37.74667, "stop_lon": -122.47577, "zone_id": " ", "stop_url": null }, "geometry": { "type": "Point", "coordinates": [ -122.47577, 37.74667 ] } },
{ "type": "Feature", "properties": { "id": 136, "stop_id": 3389, "stop_code": 13389, "stop_name": "19th Ave & Rivera St  ", "stop_desc": " ", "stop_lat": 37.74647, "stop_lon": -122.47601, "zone_id": " ", "stop_url": null }, "geometry": { "type": "Point", "coordinates": [ -122.47601, 37.74647 ] } },
{ "type": "Feature", "properties": { "id": 137, "stop_id": 3390, "stop_code": 13390, "stop_name": "19th Ave & Sloat Blvd  ", "stop_desc": " ", "stop_lat": 37.734556, "stop_lon": -122.475203, "zone_id": " ", "stop_url": null }, "geometry": { "type": "Point", "coordinates": [ -122.475203, 37.734556 ] } },
{ "type": "Feature", "properties": { "id": 138, "stop_id": 3391, "stop_code": 13391, "stop_name": "19th Ave & Sloat Blvd  ", "stop_desc": " ", "stop_lat": 37.734717, "stop_lon": -122.474974, "zone_id": " ", "stop_url": null }, "geometry": { "type": "Point", "coordinates": [ -122.474974, 37.734717 ] } },
{ "type": "Feature", "properties": { "id": 139, "stop_id": 3392, "stop_code": 13392, "stop_name": "19th Ave & Santiago St  ", "stop_desc": " ", "stop_lat": 37.74524, "stop_lon": -122.47567, "zone_id": " ", "stop_url": null }, "geometry": { "type": "Point", "coordinates": [ -122.47567, 37.74524 ] } },
{ "type": "Feature", "properties": { "id": 140, "stop_id": 3393, "stop_code": 13393, "stop_name": "19th Ave & Santiago St  ", "stop_desc": " ", "stop_lat": 37.74507, "stop_lon": -122.4759, "zone_id": " ", "stop_url": null }, "geometry": { "type": "Point", "coordinates": [ -122.4759, 37.74507 ] } },
{ "type": "Feature", "properties": { "id": 141, "stop_id": 3394, "stop_code": 13394, "stop_name": "19th Ave & Taraval St  ", "stop_desc": " ", "stop_lat": 37.74331, "stop_lon": -122.47554, "zone_id": " ", "stop_url": null }, "geometry": { "type": "Point", "coordinates": [ -122.47554, 37.74331 ] } },
{ "type": "Feature", "properties": { "id": 142, "stop_id": 3395, "stop_code": 13395, "stop_name": "19th Ave & Taraval St  ", "stop_desc": " ", "stop_lat": 37.74318, "stop_lon": -122.47578, "zone_id": " ", "stop_url": null }, "geometry": { "type": "Point", "coordinates": [ -122.47578, 37.74318 ] } },
{ "type": "Feature", "properties": { "id": 143, "stop_id": 3396, "stop_code": 13396, "stop_name": "19th Ave & Ulloa St  ", "stop_desc": " ", "stop_lat": 37.74149, "stop_lon": -122.47543, "zone_id": " ", "stop_url": null }, "geometry": { "type": "Point", "coordinates": [ -122.47543, 37.74149 ] } },
{ "type": "Feature", "properties": { "id": 144, "stop_id": 3397, "stop_code": 13397, "stop_name": "19th Ave & Ulloa St  ", "stop_desc": " ", "stop_lat": 37.74129, "stop_lon": -122.47568, "zone_id": " ", "stop_url": null }, "geometry": { "type": "Point", "coordinates": [ -122.47568, 37.74129 ] } },
{ "type": "Feature", "properties": { "id": 145, "stop_id": 3398, "stop_code": 13398, "stop_name": "19th Ave & Vicente St  ", "stop_desc": " ", "stop_lat": 37.7392, "stop_lon": -122.47528, "zone_id": " ", "stop_url": null }, "geometry": { "type": "Point", "coordinates": [ -122.47528, 37.7392 ] } },
{ "type": "Feature", "properties": { "id": 146, "stop_id": 3399, "stop_code": 13399, "stop_name": "19th Ave & Vicente St  ", "stop_desc": " ", "stop_lat": 37.73901, "stop_lon": -122.47553, "zone_id": " ", "stop_url": null }, "geometry": { "type": "Point", "coordinates": [ -122.47553, 37.73901 ] } },
{ "type": "Feature", "properties": { "id": 147, "stop_id": 3400, "stop_code": 13400, "stop_name": "19th Ave & Wawona St  ", "stop_desc": " ", "stop_lat": 37.73757, "stop_lon": -122.47542, "zone_id": " ", "stop_url": null }, "geometry": { "type": "Point", "coordinates": [ -122.47542, 37.73757 ] } },
{ "type": "Feature", "properties": { "id": 148, "stop_id": 3401, "stop_code": 13401, "stop_name": "19th Ave & Wawona St  ", "stop_desc": " ", "stop_lat": 37.73734, "stop_lon": -122.47515, "zone_id": " ", "stop_url": null }, "geometry": { "type": "Point", "coordinates": [ -122.47515, 37.73734 ] } },
{ "type": "Feature", "properties": { "id": 149, "stop_id": 3402, "stop_code": 13402, "stop_name": "19th Ave & Winston Dr  ", "stop_desc": " ", "stop_lat": 37.72719, "stop_lon": -122.47468, "zone_id": " ", "stop_url": null }, "geometry": { "type": "Point", "coordinates": [ -122.47468, 37.72719 ] } },
{ "type": "Feature", "properties": { "id": 150, "stop_id": 3410, "stop_code": 13410, "stop_name": "20th St & 3rd St  ", "stop_desc": " ", "stop_lat": 37.760536, "stop_lon": -122.388707, "zone_id": " ", "stop_url": null }, "geometry": { "type": "Point", "coordinates": [ -122.388707, 37.760536 ] } },
{ "type": "Feature", "properties": { "id": 151, "stop_id": 3452, "stop_code": 13452, "stop_name": "23rd St & Rhode Island St  ", "stop_desc": " ", "stop_lat": 37.75451, "stop_lon": -122.401694, "zone_id": " ", "stop_url": null }, "geometry": { "type": "Point", "coordinates": [ -122.401694, 37.75451 ] } },
{ "type": "Feature", "properties": { "id": 152, "stop_id": 3489, "stop_code": 13489, "stop_name": "25th Ave & Balboa St  ", "stop_desc": " ", "stop_lat": 37.776419, "stop_lon": -122.48456, "zone_id": " ", "stop_url": null }, "geometry": { "type": "Point", "coordinates": [ -122.48456, 37.776419 ] } },
{ "type": "Feature", "properties": { "id": 153, "stop_id": 3490, "stop_code": 13490, "stop_name": "25th Ave & Balboa St  ", "stop_desc": " ", "stop_lat": 37.776187, "stop_lon": -122.484365, "zone_id": " ", "stop_url": null }, "geometry": { "type": "Point", "coordinates": [ -122.484365, 37.776187 ] } },
{ "type": "Feature", "properties": { "id": 154, "stop_id": 3491, "stop_code": 13491, "stop_name": "25th Ave & California St  ", "stop_desc": " ", "stop_lat": 37.784003, "stop_lon": -122.485102, "zone_id": " ", "stop_url": null }, "geometry": { "type": "Point", "coordinates": [ -122.485102, 37.784003 ] } },
{ "type": "Feature", "properties": { "id": 155, "stop_id": 3492, "stop_code": 13492, "stop_name": "25th Ave & California St  ", "stop_desc": " ", "stop_lat": 37.783807, "stop_lon": -122.48485, "zone_id": " ", "stop_url": null }, "geometry": { "type": "Point", "coordinates": [ -122.48485, 37.783807 ] } },
{ "type": "Feature", "properties": { "id": 156, "stop_id": 3495, "stop_code": 13495, "stop_name": "25th Ave & Clement St  ", "stop_desc": " ", "stop_lat": 37.782147, "stop_lon": -122.484975, "zone_id": " ", "stop_url": null }, "geometry": { "type": "Point", "coordinates": [ -122.484975, 37.782147 ] } },
{ "type": "Feature", "properties": { "id": 157, "stop_id": 3496, "stop_code": 13496, "stop_name": "25th Ave & Clement St  ", "stop_desc": " ", "stop_lat": 37.781951, "stop_lon": -122.484712, "zone_id": " ", "stop_url": null }, "geometry": { "type": "Point", "coordinates": [ -122.484712, 37.781951 ] } },
{ "type": "Feature", "properties": { "id": 158, "stop_id": 3497, "stop_code": 13497, "stop_name": "25th Ave & El Camino Del Mar  ", "stop_desc": " ", "stop_lat": 37.787536, "stop_lon": -122.485139, "zone_id": " ", "stop_url": null }, "geometry": { "type": "Point", "coordinates": [ -122.485139, 37.787536 ] } },
{ "type": "Feature", "properties": { "id": 159, "stop_id": 3498, "stop_code": 13498, "stop_name": "25th Ave & El Camino Del Mar  ", "stop_desc": " ", "stop_lat": 37.787367, "stop_lon": -122.485356, "zone_id": " ", "stop_url": null }, "geometry": { "type": "Point", "coordinates": [ -122.485356, 37.787367 ] } },
{ "type": "Feature", "properties": { "id": 160, "stop_id": 3499, "stop_code": 13499, "stop_name": "25th Ave & Fulton St  ", "stop_desc": " ", "stop_lat": 37.772689, "stop_lon": -122.484295, "zone_id": " ", "stop_url": null }, "geometry": { "type": "Point", "coordinates": [ -122.484295, 37.772689 ] } },
{ "type": "Feature", "properties": { "id": 161, "stop_id": 3500, "stop_code": 13500, "stop_name": "25th Ave & Geary Blvd  ", "stop_desc": " ", "stop_lat": 37.780255, "stop_lon": -122.484837, "zone_id": " ", "stop_url": null }, "geometry": { "type": "Point", "coordinates": [ -122.484837, 37.780255 ] } },
{ "type": "Feature", "properties": { "id": 162, "stop_id": 3501, "stop_code": 13501, "stop_name": "25th Ave & Geary Blvd  ", "stop_desc": " ", "stop_lat": 37.779925, "stop_lon": -122.484619, "zone_id": " ", "stop_url": null }, "geometry": { "type": "Point", "coordinates": [ -122.484619, 37.779925 ] } },
{ "type": "Feature", "properties": { "id": 163, "stop_id": 3502, "stop_code": 13502, "stop_name": "25th Ave & Lake St  ", "stop_desc": " ", "stop_lat": 37.785868, "stop_lon": -122.485241, "zone_id": " ", "stop_url": null }, "geometry": { "type": "Point", "coordinates": [ -122.485241, 37.785868 ] } },
{ "type": "Feature", "properties": { "id": 164, "stop_id": 3503, "stop_code": 13503, "stop_name": "25th Ave & Lake St  ", "stop_desc": " ", "stop_lat": 37.785689, "stop_lon": -122.485034, "zone_id": " ", "stop_url": null }, "geometry": { "type": "Point", "coordinates": [ -122.485034, 37.785689 ] } },
{ "type": "Feature", "properties": { "id": 165, "stop_id": 3505, "stop_code": 13505, "stop_name": "25th St & Connecticut St", "stop_desc": " ", "stop_lat": 37.752242, "stop_lon": -122.39662, "zone_id": " ", "stop_url": null }, "geometry": { "type": "Point", "coordinates": [ -122.39662, 37.752242 ] } },
{ "type": "Feature", "properties": { "id": 166, "stop_id": 3513, "stop_code": 13513, "stop_name": "25th St & Wisconsin St  ", "stop_desc": " ", "stop_lat": 37.752162, "stop_lon": -122.398293, "zone_id": " ", "stop_url": null }, "geometry": { "type": "Point", "coordinates": [ -122.398293, 37.752162 ] } },
{ "type": "Feature", "properties": { "id": 167, "stop_id": 3514, "stop_code": 13514, "stop_name": "26th St & Castro St  ", "stop_desc": " ", "stop_lat": 37.74815, "stop_lon": -122.43363, "zone_id": " ", "stop_url": null }, "geometry": { "type": "Point", "coordinates": [ -122.43363, 37.74815 ] } },
{ "type": "Feature", "properties": { "id": 168, "stop_id": 3516, "stop_code": 13516, "stop_name": "26th St & De Haro St  ", "stop_desc": " ", "stop_lat": 37.75086, "stop_lon": -122.40015, "zone_id": " ", "stop_url": null }, "geometry": { "type": "Point", "coordinates": [ -122.40015, 37.75086 ] } },
{ "type": "Feature", "properties": { "id": 169, "stop_id": 3517, "stop_code": 13517, "stop_name": "26th St & De Haro St  ", "stop_desc": " ", "stop_lat": 37.750753, "stop_lon": -122.400024, "zone_id": " ", "stop_url": null }, "geometry": { "type": "Point", "coordinates": [ -122.400024, 37.750753 ] } },
{ "type": "Feature", "properties": { "id": 170, "stop_id": 3520, "stop_code": 13520, "stop_name": "26th St & Noe St  ", "stop_desc": " ", "stop_lat": 37.74827, "stop_lon": -122.43177, "zone_id": " ", "stop_url": null }, "geometry": { "type": "Point", "coordinates": [ -122.43177, 37.74827 ] } },
{ "type": "Feature", "properties": { "id": 171, "stop_id": 3521, "stop_code": 13521, "stop_name": "26th St & Noe St  ", "stop_desc": " ", "stop_lat": 37.748174, "stop_lon": -122.431636, "zone_id": " ", "stop_url": null }, "geometry": { "type": "Point", "coordinates": [ -122.431636, 37.748174 ] } },
{ "type": "Feature", "properties": { "id": 172, "stop_id": 3522, "stop_code": 13522, "stop_name": "26th St & Rhode Island St  ", "stop_desc": " ", "stop_lat": 37.750718, "stop_lon": -122.401124, "zone_id": " ", "stop_url": null }, "geometry": { "type": "Point", "coordinates": [ -122.401124, 37.750718 ] } },
{ "type": "Feature", "properties": { "id": 173, "stop_id": 3524, "stop_code": 13524, "stop_name": "26th St & Wisconsin St  ", "stop_desc": " ", "stop_lat": 37.75111, "stop_lon": -122.39866, "zone_id": " ", "stop_url": null }, "geometry": { "type": "Point", "coordinates": [ -122.39866, 37.75111 ] } },
{ "type": "Feature", "properties": { "id": 174, "stop_id": 3535, "stop_code": 13535, "stop_name": "30th St & Church St  ", "stop_desc": " ", "stop_lat": 37.742159, "stop_lon": -122.426369, "zone_id": " ", "stop_url": null }, "geometry": { "type": "Point", "coordinates": [ -122.426369, 37.742159 ] } },
{ "type": "Feature", "properties": { "id": 175, "stop_id": 3536, "stop_code": 13536, "stop_name": "30th St & Church St  ", "stop_desc": " ", "stop_lat": 37.74204, "stop_lon": -122.42676, "zone_id": " ", "stop_url": null }, "geometry": { "type": "Point", "coordinates": [ -122.42676, 37.74204 ] } },
{ "type": "Feature", "properties": { "id": 176, "stop_id": 3537, "stop_code": 13537, "stop_name": "30th St & Dolores St  ", "stop_desc": " ", "stop_lat": 37.742304, "stop_lon": -122.424026, "zone_id": " ", "stop_url": null }, "geometry": { "type": "Point", "coordinates": [ -122.424026, 37.742304 ] } },
{ "type": "Feature", "properties": { "id": 177, "stop_id": 3538, "stop_code": 13538, "stop_name": "30th St & Dolores St  ", "stop_desc": " ", "stop_lat": 37.74217, "stop_lon": -122.424457, "zone_id": " ", "stop_url": null }, "geometry": { "type": "Point", "coordinates": [ -122.424457, 37.74217 ] } },
{ "type": "Feature", "properties": { "id": 178, "stop_id": 3540, "stop_code": 13540, "stop_name": "30th St & Mission St  ", "stop_desc": " ", "stop_lat": 37.742408, "stop_lon": -122.422037, "zone_id": " ", "stop_url": null }, "geometry": { "type": "Point", "coordinates": [ -122.422037, 37.742408 ] } },
{ "type": "Feature", "properties": { "id": 179, "stop_id": 3541, "stop_code": 13541, "stop_name": "30th St & Mission St  ", "stop_desc": " ", "stop_lat": 37.74231, "stop_lon": -122.42217, "zone_id": " ", "stop_url": null }, "geometry": { "type": "Point", "coordinates": [ -122.42217, 37.74231 ] } },
{ "type": "Feature", "properties": { "id": 180, "stop_id": 3542, "stop_code": 13542, "stop_name": "30th St & Noe St  ", "stop_desc": " ", "stop_lat": 37.74188, "stop_lon": -122.43079, "zone_id": " ", "stop_url": null }, "geometry": { "type": "Point", "coordinates": [ -122.43079, 37.74188 ] } },
{ "type": "Feature", "properties": { "id": 181, "stop_id": 3543, "stop_code": 13543, "stop_name": "30th St & Sanchez St  ", "stop_desc": " ", "stop_lat": 37.74202, "stop_lon": -122.4286, "zone_id": " ", "stop_url": null }, "geometry": { "type": "Point", "coordinates": [ -122.4286, 37.74202 ] } },
{ "type": "Feature", "properties": { "id": 182, "stop_id": 3544, "stop_code": 13544, "stop_name": "30th St & Sanchez St  ", "stop_desc": " ", "stop_lat": 37.74191, "stop_lon": -122.42902, "zone_id": " ", "stop_url": null }, "geometry": { "type": "Point", "coordinates": [ -122.42902, 37.74191 ] } },
{ "type": "Feature", "properties": { "id": 183, "stop_id": 3546, "stop_code": 13546, "stop_name": "32nd Ave & California St  ", "stop_desc": " ", "stop_lat": 37.783419, "stop_lon": -122.492442, "zone_id": " ", "stop_url": null }, "geometry": { "type": "Point", "coordinates": [ -122.492442, 37.783419 ] } },
{ "type": "Feature", "properties": { "id": 184, "stop_id": 3547, "stop_code": 13547, "stop_name": "32nd Ave & California St  ", "stop_desc": " ", "stop_lat": 37.783429, "stop_lon": -122.492553, "zone_id": " ", "stop_url": null }, "geometry": { "type": "Point", "coordinates": [ -122.492553, 37.783429 ] } },
{ "type": "Feature", "properties": { "id": 185, "stop_id": 3548, "stop_code": 13548, "stop_name": "32nd Ave & Clement St  ", "stop_desc": " ", "stop_lat": 37.781995, "stop_lon": -122.492335, "zone_id": " ", "stop_url": null }, "geometry": { "type": "Point", "coordinates": [ -122.492335, 37.781995 ] } },
{ "type": "Feature", "properties": { "id": 186, "stop_id": 3549, "stop_code": 13549, "stop_name": "32nd Ave & Clement St  ", "stop_desc": " ", "stop_lat": 37.781802, "stop_lon": -122.492425, "zone_id": " ", "stop_url": null }, "geometry": { "type": "Point", "coordinates": [ -122.492425, 37.781802 ] } },
{ "type": "Feature", "properties": { "id": 187, "stop_id": 3550, "stop_code": 13550, "stop_name": "32nd Ave & Geary Blvd  ", "stop_desc": " ", "stop_lat": 37.779939, "stop_lon": -122.492296, "zone_id": " ", "stop_url": null }, "geometry": { "type": "Point", "coordinates": [ -122.492296, 37.779939 ] } },
{ "type": "Feature", "properties": { "id": 188, "stop_id": 3555, "stop_code": 13555, "stop_name": "33rd Ave & Clement St  ", "stop_desc": " ", "stop_lat": 37.781537, "stop_lon": -122.493354, "zone_id": " ", "stop_url": null }, "geometry": { "type": "Point", "coordinates": [ -122.493354, 37.781537 ] } },
{ "type": "Feature", "properties": { "id": 189, "stop_id": 3561, "stop_code": 13561, "stop_name": "36th Ave & Lincoln Way  ", "stop_desc": " ", "stop_lat": 37.764557, "stop_lon": -122.495372, "zone_id": " ", "stop_url": null }, "geometry": { "type": "Point", "coordinates": [ -122.495372, 37.764557 ] } },
{ "type": "Feature", "properties": { "id": 190, "stop_id": 3562, "stop_code": 13562, "stop_name": "37th Ave & Lincoln Way  ", "stop_desc": " ", "stop_lat": 37.76436, "stop_lon": -122.496621, "zone_id": " ", "stop_url": null }, "geometry": { "type": "Point", "coordinates": [ -122.496621, 37.76436 ] } },
{ "type": "Feature", "properties": { "id": 191, "stop_id": 3566, "stop_code": 13566, "stop_name": "42nd Ave & Clement St  ", "stop_desc": " ", "stop_lat": 37.781087, "stop_lon": -122.502994, "zone_id": " ", "stop_url": null }, "geometry": { "type": "Point", "coordinates": [ -122.502994, 37.781087 ] } },
{ "type": "Feature", "properties": { "id": 192, "stop_id": 3567, "stop_code": 13567, "stop_name": "43rd Ave & Clement St  ", "stop_desc": " ", "stop_lat": 37.781007, "stop_lon": -122.504232, "zone_id": " ", "stop_url": null }, "geometry": { "type": "Point", "coordinates": [ -122.504232, 37.781007 ] } },
{ "type": "Feature", "properties": { "id": 193, "stop_id": 3568, "stop_code": 13568, "stop_name": "43rd Ave & Point Lobos Ave  ", "stop_desc": " ", "stop_lat": 37.779784, "stop_lon": -122.504139, "zone_id": " ", "stop_url": null }, "geometry": { "type": "Point", "coordinates": [ -122.504139, 37.779784 ] } },
{ "type": "Feature", "properties": { "id": 194, "stop_id": 3599, "stop_code": 13599, "stop_name": "46th Ave & Taraval St  ", "stop_desc": " ", "stop_lat": 37.741685, "stop_lon": -122.504534, "zone_id": " ", "stop_url": null }, "geometry": { "type": "Point", "coordinates": [ -122.504534, 37.741685 ] } },
{ "type": "Feature", "properties": { "id": 195, "stop_id": 3600, "stop_code": 13600, "stop_name": "46th Ave & Ulloa St  ", "stop_desc": " ", "stop_lat": 37.739998, "stop_lon": -122.504579, "zone_id": " ", "stop_url": null }, "geometry": { "type": "Point", "coordinates": [ -122.504579, 37.739998 ] } },
{ "type": "Feature", "properties": { "id": 196, "stop_id": 3601, "stop_code": 13601, "stop_name": "46th Ave & Ulloa St  ", "stop_desc": " ", "stop_lat": 37.739829, "stop_lon": -122.504407, "zone_id": " ", "stop_url": null }, "geometry": { "type": "Point", "coordinates": [ -122.504407, 37.739829 ] } },
{ "type": "Feature", "properties": { "id": 197, "stop_id": 3602, "stop_code": 13602, "stop_name": "46th Ave & Vicente St  ", "stop_desc": " ", "stop_lat": 37.738142, "stop_lon": -122.50444, "zone_id": " ", "stop_url": null }, "geometry": { "type": "Point", "coordinates": [ -122.50444, 37.738142 ] } },
{ "type": "Feature", "properties": { "id": 198, "stop_id": 3603, "stop_code": 13603, "stop_name": "46th Ave & Vicente St  ", "stop_desc": " ", "stop_lat": 37.737973, "stop_lon": -122.504268, "zone_id": " ", "stop_url": null }, "geometry": { "type": "Point", "coordinates": [ -122.504268, 37.737973 ] } },
{ "type": "Feature", "properties": { "id": 199, "stop_id": 3608, "stop_code": 13608, "stop_name": "48th Ave & Point Lobos Ave  ", "stop_desc": " ", "stop_lat": 37.779023, "stop_lon": -122.509411, "zone_id": " ", "stop_url": null }, "geometry": { "type": "Point", "coordinates": [ -122.509411, 37.779023 ] } },
{ "type": "Feature", "properties": { "id": 200, "stop_id": 3670, "stop_code": 13670, "stop_name": "Avenue B & Gateview Ave", "stop_desc": " ", "stop_lat": 37.82695, "stop_lon": -122.377402, "zone_id": " ", "stop_url": null }, "geometry": { "type": "Point", "coordinates": [ -122.377402, 37.82695 ] } },
{ "type": "Feature", "properties": { "id": 201, "stop_id": 3673, "stop_code": 13673, "stop_name": "Avenue H & 4th St  ", "stop_desc": " ", "stop_lat": 37.821938, "stop_lon": -122.367796, "zone_id": " ", "stop_url": null }, "geometry": { "type": "Point", "coordinates": [ -122.367796, 37.821938 ] } },
{ "type": "Feature", "properties": { "id": 202, "stop_id": 3674, "stop_code": 13674, "stop_name": "Avenue H & 6th St  ", "stop_desc": " ", "stop_lat": 37.823625, "stop_lon": -122.36893, "zone_id": " ", "stop_url": null }, "geometry": { "type": "Point", "coordinates": [ -122.36893, 37.823625 ] } },
{ "type": "Feature", "properties": { "id": 203, "stop_id": 3675, "stop_code": 13675, "stop_name": "Avenue H & California St", "stop_desc": " ", "stop_lat": 37.819939, "stop_lon": -122.366422, "zone_id": " ", "stop_url": null }, "geometry": { "type": "Point", "coordinates": [ -122.366422, 37.819939 ] } },
{ "type": "Feature", "properties": { "id": 204, "stop_id": 3680, "stop_code": 13680, "stop_name": "Avalon Ave & La Grande Ave  ", "stop_desc": " ", "stop_lat": 37.72474, "stop_lon": -122.42422, "zone_id": " ", "stop_url": null }, "geometry": { "type": "Point", "coordinates": [ -122.42422, 37.72474 ] } },
{ "type": "Feature", "properties": { "id": 205, "stop_id": 3681, "stop_code": 13681, "stop_name": "Avalon Ave & La Grande Ave   ", "stop_desc": " ", "stop_lat": 37.724867, "stop_lon": -122.424128, "zone_id": " ", "stop_url": null }, "geometry": { "type": "Point", "coordinates": [ -122.424128, 37.724867 ] } },
{ "type": "Feature", "properties": { "id": 206, "stop_id": 3682, "stop_code": 13682, "stop_name": "Avalon Ave & Peru Ave  ", "stop_desc": " ", "stop_lat": 37.72508, "stop_lon": -122.42342, "zone_id": " ", "stop_url": null }, "geometry": { "type": "Point", "coordinates": [ -122.42342, 37.72508 ] } },
{ "type": "Feature", "properties": { "id": 207, "stop_id": 3685, "stop_code": 13685, "stop_name": "Bacon St & Girard St  ", "stop_desc": " ", "stop_lat": 37.72744, "stop_lon": -122.40451, "zone_id": " ", "stop_url": null }, "geometry": { "type": "Point", "coordinates": [ -122.40451, 37.72744 ] } },
{ "type": "Feature", "properties": { "id": 208, "stop_id": 3686, "stop_code": 13686, "stop_name": "Bacon St & Girard St  ", "stop_desc": " ", "stop_lat": 37.72732, "stop_lon": -122.4047, "zone_id": " ", "stop_url": null }, "geometry": { "type": "Point", "coordinates": [ -122.4047, 37.72732 ] } },
{ "type": "Feature", "properties": { "id": 209, "stop_id": 3687, "stop_code": 13687, "stop_name": "Bacon St & Goettingen St  ", "stop_desc": " ", "stop_lat": 37.72691, "stop_lon": -122.40648, "zone_id": " ", "stop_url": null }, "geometry": { "type": "Point", "coordinates": [ -122.40648, 37.72691 ] } },
{ "type": "Feature", "properties": { "id": 210, "stop_id": 3688, "stop_code": 13688, "stop_name": "Bacon St & Goettingen St  ", "stop_desc": " ", "stop_lat": 37.7268, "stop_lon": -122.40667, "zone_id": " ", "stop_url": null }, "geometry": { "type": "Point", "coordinates": [ -122.40667, 37.7268 ] } },
{ "type": "Feature", "properties": { "id": 211, "stop_id": 3689, "stop_code": 13689, "stop_name": "Beverly St & Garfield St  ", "stop_desc": " ", "stop_lat": 37.719728, "stop_lon": -122.471739, "zone_id": " ", "stop_url": null }, "geometry": { "type": "Point", "coordinates": [ -122.471739, 37.719728 ] } },
{ "type": "Feature", "properties": { "id": 212, "stop_id": 3694, "stop_code": 13694, "stop_name": "Bosworth St & Elk St  ", "stop_desc": " ", "stop_lat": 37.734871, "stop_lon": -122.44007, "zone_id": " ", "stop_url": null }, "geometry": { "type": "Point", "coordinates": [ -122.44007, 37.734871 ] } },
{ "type": "Feature", "properties": { "id": 213, "stop_id": 3695, "stop_code": 13695, "stop_name": "Bosworth St & Diamond St  ", "stop_desc": " ", "stop_lat": 37.733595, "stop_lon": -122.434011, "zone_id": " ", "stop_url": null }, "geometry": { "type": "Point", "coordinates": [ -122.434011, 37.733595 ] } },
{ "type": "Feature", "properties": { "id": 214, "stop_id": 3696, "stop_code": 13696, "stop_name": "Bosworth St & Diamond St  ", "stop_desc": " ", "stop_lat": 37.733488, "stop_lon": -122.43408, "zone_id": " ", "stop_url": null }, "geometry": { "type": "Point", "coordinates": [ -122.43408, 37.733488 ] } },
{ "type": "Feature", "properties": { "id": 215, "stop_id": 3697, "stop_code": 13697, "stop_name": "Bosworth St & Elk St  ", "stop_desc": " ", "stop_lat": 37.735005, "stop_lon": -122.440093, "zone_id": " ", "stop_url": null }, "geometry": { "type": "Point", "coordinates": [ -122.440093, 37.735005 ] } },
{ "type": "Feature", "properties": { "id": 216, "stop_id": 3698, "stop_code": 13698, "stop_name": "Bosworth St & Lippard Ave  ", "stop_desc": " ", "stop_lat": 37.733925, "stop_lon": -122.435706, "zone_id": " ", "stop_url": null }, "geometry": { "type": "Point", "coordinates": [ -122.435706, 37.733925 ] } },
{ "type": "Feature", "properties": { "id": 217, "stop_id": 3699, "stop_code": 13699, "stop_name": "Bosworth St & Lippard Ave  ", "stop_desc": " ", "stop_lat": 37.733827, "stop_lon": -122.43597, "zone_id": " ", "stop_url": null }, "geometry": { "type": "Point", "coordinates": [ -122.43597, 37.733827 ] } },
{ "type": "Feature", "properties": { "id": 218, "stop_id": 3705, "stop_code": 13705, "stop_name": "Lincoln Blvd & Bowley Ave  ", "stop_desc": " ", "stop_lat": 37.788465, "stop_lon": -122.482617, "zone_id": " ", "stop_url": null }, "geometry": { "type": "Point", "coordinates": [ -122.482617, 37.788465 ] } },
{ "type": "Feature", "properties": { "id": 219, "stop_id": 3706, "stop_code": 13706, "stop_name": "Bowley St & Lincoln Blvd  ", "stop_desc": " ", "stop_lat": 37.792222, "stop_lon": -122.481186, "zone_id": " ", "stop_url": null }, "geometry": { "type": "Point", "coordinates": [ -122.481186, 37.792222 ] } },
{ "type": "Feature", "properties": { "id": 220, "stop_id": 3715, "stop_code": 13715, "stop_name": "Broad St & Capitol Ave  ", "stop_desc": " ", "stop_lat": 37.713191, "stop_lon": -122.458921, "zone_id": " ", "stop_url": null }, "geometry": { "type": "Point", "coordinates": [ -122.458921, 37.713191 ] } },
{ "type": "Feature", "properties": { "id": 221, "stop_id": 3716, "stop_code": 13716, "stop_name": "Broad St & Capitol Ave  ", "stop_desc": " ", "stop_lat": 37.713152, "stop_lon": -122.459159, "zone_id": " ", "stop_url": null }, "geometry": { "type": "Point", "coordinates": [ -122.459159, 37.713152 ] } },
{ "type": "Feature", "properties": { "id": 222, "stop_id": 3717, "stop_code": 13717, "stop_name": "Broad St & Orizaba Ave  ", "stop_desc": " ", "stop_lat": 37.713178, "stop_lon": -122.462331, "zone_id": " ", "stop_url": null }, "geometry": { "type": "Point", "coordinates": [ -122.462331, 37.713178 ] } },
{ "type": "Feature", "properties": { "id": 223, "stop_id": 3718, "stop_code": 13718, "stop_name": "Broad St & Plymouth Ave  ", "stop_desc": " ", "stop_lat": 37.713222, "stop_lon": -122.455927, "zone_id": " ", "stop_url": null }, "geometry": { "type": "Point", "coordinates": [ -122.455927, 37.713222 ] } },
{ "type": "Feature", "properties": { "id": 224, "stop_id": 3719, "stop_code": 13719, "stop_name": "Broad St & Plymouth Ave  ", "stop_desc": " ", "stop_lat": 37.713161, "stop_lon": -122.45618, "zone_id": " ", "stop_url": null }, "geometry": { "type": "Point", "coordinates": [ -122.45618, 37.713161 ] } },
{ "type": "Feature", "properties": { "id": 225, "stop_id": 3721, "stop_code": 13721, "stop_name": "Bridge View Dr & Scotia Ave   ", "stop_desc": " ", "stop_lat": 37.73184, "stop_lon": -122.3994, "zone_id": " ", "stop_url": null }, "geometry": { "type": "Point", "coordinates": [ -122.3994, 37.73184 ] } },
{ "type": "Feature", "properties": { "id": 226, "stop_id": 3722, "stop_code": 13722, "stop_name": "Bridge View Dr & Topeka Ave   ", "stop_desc": " ", "stop_lat": 37.7332, "stop_lon": -122.39769, "zone_id": " ", "stop_url": null }, "geometry": { "type": "Point", "coordinates": [ -122.39769, 37.7332 ] } },
{ "type": "Feature", "properties": { "id": 227, "stop_id": 3723, "stop_code": 13723, "stop_name": "Bryant St & 4th St   ", "stop_desc": " ", "stop_lat": 37.779474, "stop_lon": -122.398068, "zone_id": " ", "stop_url": null }, "geometry": { "type": "Point", "coordinates": [ -122.398068, 37.779474 ] } },
{ "type": "Feature", "properties": { "id": 228, "stop_id": 3724, "stop_code": 13724, "stop_name": "Bryant St & 5th St   ", "stop_desc": " ", "stop_lat": 37.77795, "stop_lon": -122.39995, "zone_id": " ", "stop_url": null }, "geometry": { "type": "Point", "coordinates": [ -122.39995, 37.77795 ] } },
{ "type": "Feature", "properties": { "id": 229, "stop_id": 3725, "stop_code": 13725, "stop_name": "Bryant St & 6th St   ", "stop_desc": " ", "stop_lat": 37.776157, "stop_lon": -122.402231, "zone_id": " ", "stop_url": null }, "geometry": { "type": "Point", "coordinates": [ -122.402231, 37.776157 ] } },
{ "type": "Feature", "properties": { "id": 230, "stop_id": 3768, "stop_code": 13768, "stop_name": "228 Bayshore Blvd", "stop_desc": " ", "stop_lat": 37.74472, "stop_lon": -122.40443, "zone_id": " ", "stop_url": null }, "geometry": { "type": "Point", "coordinates": [ -122.40443, 37.74472 ] } },
{ "type": "Feature", "properties": { "id": 231, "stop_id": 3771, "stop_code": 13771, "stop_name": "Bayshore Blvd & Alemany Blvd", "stop_desc": " ", "stop_lat": 37.737729, "stop_lon": -122.406997, "zone_id": " ", "stop_url": null }, "geometry": { "type": "Point", "coordinates": [ -122.406997, 37.737729 ] } },
{ "type": "Feature", "properties": { "id": 232, "stop_id": 3772, "stop_code": 13772, "stop_name": "Bayshore Blvd & Arleta Ave", "stop_desc": " ", "stop_lat": 37.712208, "stop_lon": -122.40274, "zone_id": " ", "stop_url": null }, "geometry": { "type": "Point", "coordinates": [ -122.40274, 37.712208 ] } },
{ "type": "Feature", "properties": { "id": 233, "stop_id": 3773, "stop_code": 13773, "stop_name": "Bayshore Blvd & Augusta St", "stop_desc": " ", "stop_lat": 37.73425, "stop_lon": -122.40558, "zone_id": " ", "stop_url": null }, "geometry": { "type": "Point", "coordinates": [ -122.40558, 37.73425 ] } },
{ "type": "Feature", "properties": { "id": 234, "stop_id": 3775, "stop_code": 13775, "stop_name": "Bayshore Blvd & Boutwell St", "stop_desc": " ", "stop_lat": 37.73488, "stop_lon": -122.40588, "zone_id": " ", "stop_url": null }, "geometry": { "type": "Point", "coordinates": [ -122.40588, 37.73488 ] } },
{ "type": "Feature", "properties": { "id": 235, "stop_id": 3776, "stop_code": 13776, "stop_name": "Bayshore Blvd & Campbell Ave", "stop_desc": " ", "stop_lat": 37.71481, "stop_lon": -122.39936, "zone_id": " ", "stop_url": null }, "geometry": { "type": "Point", "coordinates": [ -122.39936, 37.71481 ] } },
{ "type": "Feature", "properties": { "id": 236, "stop_id": 3778, "stop_code": 13778, "stop_name": "Bayshore Blvd & Cortland Ave", "stop_desc": " ", "stop_lat": 37.73986, "stop_lon": -122.40677, "zone_id": " ", "stop_url": null }, "geometry": { "type": "Point", "coordinates": [ -122.40677, 37.73986 ] } },
{ "type": "Feature", "properties": { "id": 237, "stop_id": 3779, "stop_code": 13779, "stop_name": "Bayshore Blvd & Cortland Ave", "stop_desc": " ", "stop_lat": 37.73946, "stop_lon": -122.407122, "zone_id": " ", "stop_url": null }, "geometry": { "type": "Point", "coordinates": [ -122.407122, 37.73946 ] } },
{ "type": "Feature", "properties": { "id": 238, "stop_id": 3780, "stop_code": 13780, "stop_name": "Bayshore Blvd & Hester Ave", "stop_desc": " ", "stop_lat": 37.71497, "stop_lon": -122.39898, "zone_id": " ", "stop_url": null }, "geometry": { "type": "Point", "coordinates": [ -122.39898, 37.71497 ] } },
{ "type": "Feature", "properties": { "id": 239, "stop_id": 3783, "stop_code": 13783, "stop_name": "Bayshore Blvd & Leland Ave", "stop_desc": " ", "stop_lat": 37.711138, "stop_lon": -122.403783, "zone_id": " ", "stop_url": null }, "geometry": { "type": "Point", "coordinates": [ -122.403783, 37.711138 ] } },
{ "type": "Feature", "properties": { "id": 240, "stop_id": 3788, "stop_code": 13788, "stop_name": "Bayshore Blvd & Silver Ave", "stop_desc": " ", "stop_lat": 37.733213, "stop_lon": -122.40472, "zone_id": " ", "stop_url": null }, "geometry": { "type": "Point", "coordinates": [ -122.40472, 37.733213 ] } },
{ "type": "Feature", "properties": { "id": 241, "stop_id": 3789, "stop_code": 13789, "stop_name": "Bayshore Blvd & Silver Ave", "stop_desc": " ", "stop_lat": 37.732963, "stop_lon": -122.404789, "zone_id": " ", "stop_url": null }, "geometry": { "type": "Point", "coordinates": [ -122.404789, 37.732963 ] } },
{ "type": "Feature", "properties": { "id": 242, "stop_id": 3793, "stop_code": 13793, "stop_name": "Bayshore Blvd & Visitacion Ave", "stop_desc": " ", "stop_lat": 37.71062, "stop_lon": -122.40389, "zone_id": " ", "stop_url": null }, "geometry": { "type": "Point", "coordinates": [ -122.40389, 37.71062 ] } },
{ "type": "Feature", "properties": { "id": 243, "stop_id": 3822, "stop_code": 13822, "stop_name": "California St & 4th Ave  ", "stop_desc": " ", "stop_lat": 37.785353, "stop_lon": -122.462292, "zone_id": " ", "stop_url": null }, "geometry": { "type": "Point", "coordinates": [ -122.462292, 37.785353 ] } },
{ "type": "Feature", "properties": { "id": 244, "stop_id": 3823, "stop_code": 13823, "stop_name": "California St & 4th Ave  ", "stop_desc": " ", "stop_lat": 37.785178, "stop_lon": -122.46257, "zone_id": " ", "stop_url": null }, "geometry": { "type": "Point", "coordinates": [ -122.46257, 37.785178 ] } },
{ "type": "Feature", "properties": { "id": 245, "stop_id": 3824, "stop_code": 13824, "stop_name": "California St & 6th Ave  ", "stop_desc": " ", "stop_lat": 37.785069, "stop_lon": -122.464641, "zone_id": " ", "stop_url": null }, "geometry": { "type": "Point", "coordinates": [ -122.464641, 37.785069 ] } },
{ "type": "Feature", "properties": { "id": 246, "stop_id": 3825, "stop_code": 13825, "stop_name": "California St & 6th Ave  ", "stop_desc": " ", "stop_lat": 37.784902, "stop_lon": -122.464709, "zone_id": " ", "stop_url": null }, "geometry": { "type": "Point", "coordinates": [ -122.464709, 37.784902 ] } },
{ "type": "Feature", "properties": { "id": 247, "stop_id": 3827, "stop_code": 13827, "stop_name": "California St & 8th Ave  ", "stop_desc": " ", "stop_lat": 37.78463, "stop_lon": -122.466825, "zone_id": " ", "stop_url": null }, "geometry": { "type": "Point", "coordinates": [ -122.466825, 37.78463 ] } },
{ "type": "Feature", "properties": { "id": 248, "stop_id": 3828, "stop_code": 13828, "stop_name": "California St & 10th Ave  ", "stop_desc": " ", "stop_lat": 37.784665, "stop_lon": -122.469159, "zone_id": " ", "stop_url": null }, "geometry": { "type": "Point", "coordinates": [ -122.469159, 37.784665 ] } },
{ "type": "Feature", "properties": { "id": 249, "stop_id": 3830, "stop_code": 13830, "stop_name": "California St & 10th Ave  ", "stop_desc": " ", "stop_lat": 37.784551, "stop_lon": -122.468963, "zone_id": " ", "stop_url": null }, "geometry": { "type": "Point", "coordinates": [ -122.468963, 37.784551 ] } },
{ "type": "Feature", "properties": { "id": 250, "stop_id": 3831, "stop_code": 13831, "stop_name": "California St & 12th Ave  ", "stop_desc": " ", "stop_lat": 37.784586, "stop_lon": -122.470848, "zone_id": " ", "stop_url": null }, "geometry": { "type": "Point", "coordinates": [ -122.470848, 37.784586 ] } },
{ "type": "Feature", "properties": { "id": 251, "stop_id": 3832, "stop_code": 13832, "stop_name": "California St & 12th Ave  ", "stop_desc": " ", "stop_lat": 37.784454, "stop_lon": -122.471103, "zone_id": " ", "stop_url": null }, "geometry": { "type": "Point", "coordinates": [ -122.471103, 37.784454 ] } },
{ "type": "Feature", "properties": { "id": 252, "stop_id": 3833, "stop_code": 13833, "stop_name": "California St & 16th Ave  ", "stop_desc": " ", "stop_lat": 37.784386, "stop_lon": -122.475229, "zone_id": " ", "stop_url": null }, "geometry": { "type": "Point", "coordinates": [ -122.475229, 37.784386 ] } },
{ "type": "Feature", "properties": { "id": 253, "stop_id": 3834, "stop_code": 13834, "stop_name": "California St & 16th Ave  ", "stop_desc": " ", "stop_lat": 37.784253, "stop_lon": -122.475501, "zone_id": " ", "stop_url": null }, "geometry": { "type": "Point", "coordinates": [ -122.475501, 37.784253 ] } },
{ "type": "Feature", "properties": { "id": 254, "stop_id": 3835, "stop_code": 13835, "stop_name": "California St & 19th Ave  ", "stop_desc": " ", "stop_lat": 37.784241, "stop_lon": -122.478446, "zone_id": " ", "stop_url": null }, "geometry": { "type": "Point", "coordinates": [ -122.478446, 37.784241 ] } },
{ "type": "Feature", "properties": { "id": 255, "stop_id": 3836, "stop_code": 13836, "stop_name": "California St & 19th Ave  ", "stop_desc": " ", "stop_lat": 37.784109, "stop_lon": -122.47871, "zone_id": " ", "stop_url": null }, "geometry": { "type": "Point", "coordinates": [ -122.47871, 37.784109 ] } },
{ "type": "Feature", "properties": { "id": 256, "stop_id": 3837, "stop_code": 13837, "stop_name": "California St & 22nd Ave  ", "stop_desc": " ", "stop_lat": 37.784097, "stop_lon": -122.481659, "zone_id": " ", "stop_url": null }, "geometry": { "type": "Point", "coordinates": [ -122.481659, 37.784097 ] } },
{ "type": "Feature", "properties": { "id": 257, "stop_id": 3838, "stop_code": 13838, "stop_name": "California St & 22nd Ave  ", "stop_desc": " ", "stop_lat": 37.783941, "stop_lon": -122.481893, "zone_id": " ", "stop_url": null }, "geometry": { "type": "Point", "coordinates": [ -122.481893, 37.783941 ] } },
{ "type": "Feature", "properties": { "id": 258, "stop_id": 3839, "stop_code": 13839, "stop_name": "California St & 25th Ave  ", "stop_desc": " ", "stop_lat": 37.78395, "stop_lon": -122.48482, "zone_id": " ", "stop_url": null }, "geometry": { "type": "Point", "coordinates": [ -122.48482, 37.78395 ] } },
{ "type": "Feature", "properties": { "id": 259, "stop_id": 3840, "stop_code": 13840, "stop_name": "California St & 25th Ave  ", "stop_desc": " ", "stop_lat": 37.783808, "stop_lon": -122.485286, "zone_id": " ", "stop_url": null }, "geometry": { "type": "Point", "coordinates": [ -122.485286, 37.783808 ] } },
{ "type": "Feature", "properties": { "id": 260, "stop_id": 3841, "stop_code": 13841, "stop_name": "California St & 28th Ave  ", "stop_desc": " ", "stop_lat": 37.783798, "stop_lon": -122.488074, "zone_id": " ", "stop_url": null }, "geometry": { "type": "Point", "coordinates": [ -122.488074, 37.783798 ] } },
{ "type": "Feature", "properties": { "id": 261, "stop_id": 3842, "stop_code": 13842, "stop_name": "California St & 28th Ave  ", "stop_desc": " ", "stop_lat": 37.783658, "stop_lon": -122.488456, "zone_id": " ", "stop_url": null }, "geometry": { "type": "Point", "coordinates": [ -122.488456, 37.783658 ] } },
{ "type": "Feature", "properties": { "id": 262, "stop_id": 3843, "stop_code": 13843, "stop_name": "California St & 30th Ave  ", "stop_desc": " ", "stop_lat": 37.783671, "stop_lon": -122.490513, "zone_id": " ", "stop_url": null }, "geometry": { "type": "Point", "coordinates": [ -122.490513, 37.783671 ] } },
{ "type": "Feature", "properties": { "id": 263, "stop_id": 3844, "stop_code": 13844, "stop_name": "California St & 30th Ave  ", "stop_desc": " ", "stop_lat": 37.783578, "stop_lon": -122.490087, "zone_id": " ", "stop_url": null }, "geometry": { "type": "Point", "coordinates": [ -122.490087, 37.783578 ] } },
{ "type": "Feature", "properties": { "id": 264, "stop_id": 3845, "stop_code": 13845, "stop_name": "California St & Arguello Blvd ", "stop_desc": " ", "stop_lat": 37.785703, "stop_lon": -122.459288, "zone_id": " ", "stop_url": null }, "geometry": { "type": "Point", "coordinates": [ -122.459288, 37.785703 ] } },
{ "type": "Feature", "properties": { "id": 265, "stop_id": 3846, "stop_code": 13846, "stop_name": "California St & Arguello Blvd ", "stop_desc": " ", "stop_lat": 37.785659, "stop_lon": -122.459036, "zone_id": " ", "stop_url": null }, "geometry": { "type": "Point", "coordinates": [ -122.459036, 37.785659 ] } },
{ "type": "Feature", "properties": { "id": 266, "stop_id": 3847, "stop_code": 13847, "stop_name": "California St & Baker St  ", "stop_desc": " ", "stop_lat": 37.787738, "stop_lon": -122.443634, "zone_id": " ", "stop_url": null }, "geometry": { "type": "Point", "coordinates": [ -122.443634, 37.787738 ] } },
{ "type": "Feature", "properties": { "id": 267, "stop_id": 3848, "stop_code": 13848, "stop_name": "California St & Baker St  ", "stop_desc": " ", "stop_lat": 37.78762, "stop_lon": -122.443384, "zone_id": " ", "stop_url": null }, "geometry": { "type": "Point", "coordinates": [ -122.443384, 37.78762 ] } },
{ "type": "Feature", "properties": { "id": 268, "stop_id": 3852, "stop_code": 13852, "stop_name": "California St & Cherry St  ", "stop_desc": " ", "stop_lat": 37.786042, "stop_lon": -122.456835, "zone_id": " ", "stop_url": null }, "geometry": { "type": "Point", "coordinates": [ -122.456835, 37.786042 ] } },
{ "type": "Feature", "properties": { "id": 269, "stop_id": 3853, "stop_code": 13853, "stop_name": "California St & Cherry St  ", "stop_desc": " ", "stop_lat": 37.785974, "stop_lon": -122.456329, "zone_id": " ", "stop_url": null }, "geometry": { "type": "Point", "coordinates": [ -122.456329, 37.785974 ] } },
{ "type": "Feature", "properties": { "id": 270, "stop_id": 3858, "stop_code": 13858, "stop_name": "California St & Divisadero St ", "stop_desc": " ", "stop_lat": 37.788087, "stop_lon": -122.44087, "zone_id": " ", "stop_url": null }, "geometry": { "type": "Point", "coordinates": [ -122.44087, 37.788087 ] } },
{ "type": "Feature", "properties": { "id": 271, "stop_id": 3859, "stop_code": 13859, "stop_name": "California St & Divisadero St ", "stop_desc": " ", "stop_lat": 37.787954, "stop_lon": -122.440721, "zone_id": " ", "stop_url": null }, "geometry": { "type": "Point", "coordinates": [ -122.440721, 37.787954 ] } },
{ "type": "Feature", "properties": { "id": 272, "stop_id": 3875, "stop_code": 13875, "stop_name": "California St & Laurel St  ", "stop_desc": " ", "stop_lat": 37.786923, "stop_lon": -122.449957, "zone_id": " ", "stop_url": null }, "geometry": { "type": "Point", "coordinates": [ -122.449957, 37.786923 ] } },
{ "type": "Feature", "properties": { "id": 273, "stop_id": 3876, "stop_code": 13876, "stop_name": "California St & Laurel St  ", "stop_desc": " ", "stop_lat": 37.786801, "stop_lon": -122.44998, "zone_id": " ", "stop_url": null }, "geometry": { "type": "Point", "coordinates": [ -122.44998, 37.786801 ] } },
{ "type": "Feature", "properties": { "id": 274, "stop_id": 3884, "stop_code": 13884, "stop_name": "California St & Pierce St  ", "stop_desc": " ", "stop_lat": 37.788518, "stop_lon": -122.437484, "zone_id": " ", "stop_url": null }, "geometry": { "type": "Point", "coordinates": [ -122.437484, 37.788518 ] } },
{ "type": "Feature", "properties": { "id": 275, "stop_id": 3885, "stop_code": 13885, "stop_name": "California St & Pierce St  ", "stop_desc": " ", "stop_lat": 37.788455, "stop_lon": -122.436808, "zone_id": " ", "stop_url": null }, "geometry": { "type": "Point", "coordinates": [ -122.436808, 37.788455 ] } },
{ "type": "Feature", "properties": { "id": 276, "stop_id": 3886, "stop_code": 13886, "stop_name": "California St & Park Presidio Blvd", "stop_desc": " ", "stop_lat": 37.784515, "stop_lon": -122.47325, "zone_id": " ", "stop_url": null }, "geometry": { "type": "Point", "coordinates": [ -122.47325, 37.784515 ] } },
{ "type": "Feature", "properties": { "id": 277, "stop_id": 3887, "stop_code": 13887, "stop_name": "California St & Park Presidio Blvd", "stop_desc": " ", "stop_lat": 37.784365, "stop_lon": -122.472764, "zone_id": " ", "stop_url": null }, "geometry": { "type": "Point", "coordinates": [ -122.472764, 37.784365 ] } },
{ "type": "Feature", "properties": { "id": 278, "stop_id": 3892, "stop_code": 13892, "stop_name": "California St & Presidio Ave  ", "stop_desc": " ", "stop_lat": 37.787265, "stop_lon": -122.446965, "zone_id": " ", "stop_url": null }, "geometry": { "type": "Point", "coordinates": [ -122.446965, 37.787265 ] } },
{ "type": "Feature", "properties": { "id": 279, "stop_id": 3893, "stop_code": 13893, "stop_name": "California St & Presidio Ave  ", "stop_desc": " ", "stop_lat": 37.787212, "stop_lon": -122.446931, "zone_id": " ", "stop_url": null }, "geometry": { "type": "Point", "coordinates": [ -122.446931, 37.787212 ] } },
{ "type": "Feature", "properties": { "id": 280, "stop_id": 3896, "stop_code": 13896, "stop_name": "California St & Spruce St  ", "stop_desc": " ", "stop_lat": 37.786462, "stop_lon": -122.453522, "zone_id": " ", "stop_url": null }, "geometry": { "type": "Point", "coordinates": [ -122.453522, 37.786462 ] } },
{ "type": "Feature", "properties": { "id": 281, "stop_id": 3897, "stop_code": 13897, "stop_name": "California St & Spruce St  ", "stop_desc": " ", "stop_lat": 37.786382, "stop_lon": -122.45327, "zone_id": " ", "stop_url": null }, "geometry": { "type": "Point", "coordinates": [ -122.45327, 37.786382 ] } },
{ "type": "Feature", "properties": { "id": 282, "stop_id": 3904, "stop_code": 13904, "stop_name": "California St & Avenue C", "stop_desc": " ", "stop_lat": 37.81887, "stop_lon": -122.369038, "zone_id": " ", "stop_url": null }, "geometry": { "type": "Point", "coordinates": [ -122.369038, 37.81887 ] } },
{ "type": "Feature", "properties": { "id": 283, "stop_id": 3905, "stop_code": 13905, "stop_name": "California St & Avenue D  ", "stop_desc": " ", "stop_lat": 37.818736, "stop_lon": -122.3689, "zone_id": " ", "stop_url": null }, "geometry": { "type": "Point", "coordinates": [ -122.3689, 37.818736 ] } },
{ "type": "Feature", "properties": { "id": 284, "stop_id": 3911, "stop_code": 13911, "stop_name": "Carl St & Cole St  ", "stop_desc": " ", "stop_lat": 37.765745, "stop_lon": -122.450131, "zone_id": " ", "stop_url": null }, "geometry": { "type": "Point", "coordinates": [ -122.450131, 37.765745 ] } },
{ "type": "Feature", "properties": { "id": 285, "stop_id": 3912, "stop_code": 13912, "stop_name": "Carl St & Hillway Ave  ", "stop_desc": " ", "stop_lat": 37.765003, "stop_lon": -122.456561, "zone_id": " ", "stop_url": null }, "geometry": { "type": "Point", "coordinates": [ -122.456561, 37.765003 ] } },
{ "type": "Feature", "properties": { "id": 286, "stop_id": 3913, "stop_code": 13913, "stop_name": "Carl St & Hillway Ave  ", "stop_desc": " ", "stop_lat": 37.764932, "stop_lon": -122.456512, "zone_id": " ", "stop_url": null }, "geometry": { "type": "Point", "coordinates": [ -122.456512, 37.764932 ] } },
{ "type": "Feature", "properties": { "id": 287, "stop_id": 3914, "stop_code": 13914, "stop_name": "Carl St & Stanyan St  ", "stop_desc": " ", "stop_lat": 37.765495, "stop_lon": -122.45259, "zone_id": " ", "stop_url": null }, "geometry": { "type": "Point", "coordinates": [ -122.45259, 37.765495 ] } },
{ "type": "Feature", "properties": { "id": 288, "stop_id": 3915, "stop_code": 13915, "stop_name": "Carl St & Stanyan St  ", "stop_desc": " ", "stop_lat": 37.765371, "stop_lon": -122.452928, "zone_id": " ", "stop_url": null }, "geometry": { "type": "Point", "coordinates": [ -122.452928, 37.765371 ] } },
{ "type": "Feature", "properties": { "id": 289, "stop_id": 3920, "stop_code": 13920, "stop_name": "Cashmere St & Hudson Ave  ", "stop_desc": " ", "stop_lat": 37.73573, "stop_lon": -122.38354, "zone_id": " ", "stop_url": null }, "geometry": { "type": "Point", "coordinates": [ -122.38354, 37.73573 ] } },
{ "type": "Feature", "properties": { "id": 290, "stop_id": 3921, "stop_code": 13921, "stop_name": "Cashmere St & La Salle Ave  ", "stop_desc": " ", "stop_lat": 37.73585, "stop_lon": -122.38695, "zone_id": " ", "stop_url": null }, "geometry": { "type": "Point", "coordinates": [ -122.38695, 37.73585 ] } },
{ "type": "Feature", "properties": { "id": 291, "stop_id": 3922, "stop_code": 13922, "stop_name": "Cashmere St & Whitney Young Cir", "stop_desc": " ", "stop_lat": 37.7366, "stop_lon": -122.38588, "zone_id": " ", "stop_url": null }, "geometry": { "type": "Point", "coordinates": [ -122.38588, 37.7366 ] } },
{ "type": "Feature", "properties": { "id": 292, "stop_id": 3984, "stop_code": 13984, "stop_name": "Church St & 16th St  ", "stop_desc": " ", "stop_lat": 37.764621, "stop_lon": -122.428722, "zone_id": " ", "stop_url": null }, "geometry": { "type": "Point", "coordinates": [ -122.428722, 37.764621 ] } },
{ "type": "Feature", "properties": { "id": 293, "stop_id": 4005, "stop_code": 14005, "stop_name": "Church St & Duboce Ave   ", "stop_desc": " ", "stop_lat": 37.769499, "stop_lon": -122.429167, "zone_id": " ", "stop_url": null }, "geometry": { "type": "Point", "coordinates": [ -122.429167, 37.769499 ] } },
{ "type": "Feature", "properties": { "id": 294, "stop_id": 4006, "stop_code": 14006, "stop_name": "Church St & Duboce Ave  ", "stop_desc": " ", "stop_lat": 37.769302, "stop_lon": -122.429087, "zone_id": " ", "stop_url": null }, "geometry": { "type": "Point", "coordinates": [ -122.429087, 37.769302 ] } },
{ "type": "Feature", "properties": { "id": 295, "stop_id": 4009, "stop_code": 14009, "stop_name": "Market St & Church St", "stop_desc": " ", "stop_lat": 37.767839, "stop_lon": -122.428698, "zone_id": " ", "stop_url": null }, "geometry": { "type": "Point", "coordinates": [ -122.428698, 37.767839 ] } },
{ "type": "Feature", "properties": { "id": 296, "stop_id": 4015, "stop_code": 14015, "stop_name": "Clay St & Drumm St  ", "stop_desc": " ", "stop_lat": 37.795436, "stop_lon": -122.396819, "zone_id": " ", "stop_url": null }, "geometry": { "type": "Point", "coordinates": [ -122.396819, 37.795436 ] } },
{ "type": "Feature", "properties": { "id": 297, "stop_id": 4016, "stop_code": 14016, "stop_name": "Clay St & Franklin St  ", "stop_desc": " ", "stop_lat": 37.791907, "stop_lon": -122.424463, "zone_id": " ", "stop_url": null }, "geometry": { "type": "Point", "coordinates": [ -122.424463, 37.791907 ] } },
{ "type": "Feature", "properties": { "id": 298, "stop_id": 4017, "stop_code": 14017, "stop_name": "Clay St & Front St  ", "stop_desc": " ", "stop_lat": 37.795116, "stop_lon": -122.399101, "zone_id": " ", "stop_url": null }, "geometry": { "type": "Point", "coordinates": [ -122.399101, 37.795116 ] } },
{ "type": "Feature", "properties": { "id": 299, "stop_id": 4018, "stop_code": 14018, "stop_name": "Clay St & Grant Ave  ", "stop_desc": " ", "stop_lat": 37.794263, "stop_lon": -122.405971, "zone_id": " ", "stop_url": null }, "geometry": { "type": "Point", "coordinates": [ -122.405971, 37.794263 ] } },
{ "type": "Feature", "properties": { "id": 300, "stop_id": 4019, "stop_code": 14019, "stop_name": "Clay St & Hyde St  ", "stop_desc": " ", "stop_lat": 37.792756, "stop_lon": -122.417899, "zone_id": " ", "stop_url": null }, "geometry": { "type": "Point", "coordinates": [ -122.417899, 37.792756 ] } },
{ "type": "Feature", "properties": { "id": 301, "stop_id": 4020, "stop_code": 14020, "stop_name": "Clay St & Jones St  ", "stop_desc": " ", "stop_lat": 37.793173, "stop_lon": -122.414616, "zone_id": " ", "stop_url": null }, "geometry": { "type": "Point", "coordinates": [ -122.414616, 37.793173 ] } },
{ "type": "Feature", "properties": { "id": 302, "stop_id": 4021, "stop_code": 14021, "stop_name": "Clay St & Kearny St  ", "stop_desc": " ", "stop_lat": 37.794477, "stop_lon": -122.404411, "zone_id": " ", "stop_url": null }, "geometry": { "type": "Point", "coordinates": [ -122.404411, 37.794477 ] } },
{ "type": "Feature", "properties": { "id": 303, "stop_id": 4022, "stop_code": 14022, "stop_name": "Clay St & Larkin St  ", "stop_desc": " ", "stop_lat": 37.792526, "stop_lon": -122.419589, "zone_id": " ", "stop_url": null }, "geometry": { "type": "Point", "coordinates": [ -122.419589, 37.792526 ] } },
{ "type": "Feature", "properties": { "id": 304, "stop_id": 4023, "stop_code": 14023, "stop_name": "Clay St & Leavenworth St  ", "stop_desc": " ", "stop_lat": 37.792959, "stop_lon": -122.416304, "zone_id": " ", "stop_url": null }, "geometry": { "type": "Point", "coordinates": [ -122.416304, 37.792959 ] } },
{ "type": "Feature", "properties": { "id": 305, "stop_id": 4024, "stop_code": 14024, "stop_name": "Clay St & Mason St  ", "stop_desc": " ", "stop_lat": 37.793653, "stop_lon": -122.410823, "zone_id": " ", "stop_url": null }, "geometry": { "type": "Point", "coordinates": [ -122.410823, 37.793653 ] } },
{ "type": "Feature", "properties": { "id": 306, "stop_id": 4025, "stop_code": 14025, "stop_name": "Clay St & Montgomery St  ", "stop_desc": " ", "stop_lat": 37.794682, "stop_lon": -122.40277, "zone_id": " ", "stop_url": null }, "geometry": { "type": "Point", "coordinates": [ -122.40277, 37.794682 ] } },
{ "type": "Feature", "properties": { "id": 307, "stop_id": 4026, "stop_code": 14026, "stop_name": "Clay St & Polk St  ", "stop_desc": " ", "stop_lat": 37.792357, "stop_lon": -122.42101, "zone_id": " ", "stop_url": null }, "geometry": { "type": "Point", "coordinates": [ -122.42101, 37.792357 ] } },
{ "type": "Feature", "properties": { "id": 308, "stop_id": 4027, "stop_code": 14027, "stop_name": "Clay St & Powell St  ", "stop_desc": " ", "stop_lat": 37.793826, "stop_lon": -122.409591, "zone_id": " ", "stop_url": null }, "geometry": { "type": "Point", "coordinates": [ -122.409591, 37.793826 ] } },
{ "type": "Feature", "properties": { "id": 309, "stop_id": 4028, "stop_code": 14028, "stop_name": "Clay St & Sansome St  ", "stop_desc": " ", "stop_lat": 37.794778, "stop_lon": -122.401336, "zone_id": " ", "stop_url": null }, "geometry": { "type": "Point", "coordinates": [ -122.401336, 37.794778 ] } },
{ "type": "Feature", "properties": { "id": 310, "stop_id": 4029, "stop_code": 14029, "stop_name": "Clay St & Stockton St  ", "stop_desc": " ", "stop_lat": 37.794082, "stop_lon": -122.407561, "zone_id": " ", "stop_url": null }, "geometry": { "type": "Point", "coordinates": [ -122.407561, 37.794082 ] } },
{ "type": "Feature", "properties": { "id": 311, "stop_id": 4030, "stop_code": 14030, "stop_name": "Clay St & Taylor St  ", "stop_desc": " ", "stop_lat": 37.793363, "stop_lon": -122.412744, "zone_id": " ", "stop_url": null }, "geometry": { "type": "Point", "coordinates": [ -122.412744, 37.793363 ] } },
{ "type": "Feature", "properties": { "id": 312, "stop_id": 4031, "stop_code": 14031, "stop_name": "Clay St & Van Ness Ave  ", "stop_desc": " ", "stop_lat": 37.792106, "stop_lon": -122.422913, "zone_id": " ", "stop_url": null }, "geometry": { "type": "Point", "coordinates": [ -122.422913, 37.792106 ] } },
{ "type": "Feature", "properties": { "id": 313, "stop_id": 4091, "stop_code": 14091, "stop_name": "Cole St & Carl St  ", "stop_desc": " ", "stop_lat": 37.76594, "stop_lon": -122.449911, "zone_id": " ", "stop_url": null }, "geometry": { "type": "Point", "coordinates": [ -122.449911, 37.76594 ] } },
{ "type": "Feature", "properties": { "id": 314, "stop_id": 4094, "stop_code": 14094, "stop_name": "Cole St & Frederick St  ", "stop_desc": " ", "stop_lat": 37.76683, "stop_lon": -122.4502, "zone_id": " ", "stop_url": null }, "geometry": { "type": "Point", "coordinates": [ -122.4502, 37.76683 ] } },
{ "type": "Feature", "properties": { "id": 315, "stop_id": 4095, "stop_code": 14095, "stop_name": "Cole St & Haight St  ", "stop_desc": " ", "stop_lat": 37.769456, "stop_lon": -122.45061, "zone_id": " ", "stop_url": null }, "geometry": { "type": "Point", "coordinates": [ -122.45061, 37.769456 ] } },
{ "type": "Feature", "properties": { "id": 316, "stop_id": 4096, "stop_code": 14096, "stop_name": "Cole St & Haight St  ", "stop_desc": " ", "stop_lat": 37.769447, "stop_lon": -122.450771, "zone_id": " ", "stop_url": null }, "geometry": { "type": "Point", "coordinates": [ -122.450771, 37.769447 ] } },
{ "type": "Feature", "properties": { "id": 317, "stop_id": 4099, "stop_code": 14099, "stop_name": "Cole St & Waller St  ", "stop_desc": " ", "stop_lat": 37.768528, "stop_lon": -122.450427, "zone_id": " ", "stop_url": null }, "geometry": { "type": "Point", "coordinates": [ -122.450427, 37.768528 ] } },
{ "type": "Feature", "properties": { "id": 318, "stop_id": 4100, "stop_code": 14100, "stop_name": "Columbus Ave & Bay St  ", "stop_desc": " ", "stop_lat": 37.80551, "stop_lon": -122.41784, "zone_id": " ", "stop_url": null }, "geometry": { "type": "Point", "coordinates": [ -122.41784, 37.80551 ] } },
{ "type": "Feature", "properties": { "id": 319, "stop_id": 4103, "stop_code": 14103, "stop_name": "Columbus Ave & Chestnut St   ", "stop_desc": " ", "stop_lat": 37.803794, "stop_lon": -122.415136, "zone_id": " ", "stop_url": null }, "geometry": { "type": "Point", "coordinates": [ -122.415136, 37.803794 ] } },
{ "type": "Feature", "properties": { "id": 320, "stop_id": 4105, "stop_code": 14105, "stop_name": "Columbus Ave & Filbert St   ", "stop_desc": " ", "stop_lat": 37.801188, "stop_lon": -122.411605, "zone_id": " ", "stop_url": null }, "geometry": { "type": "Point", "coordinates": [ -122.411605, 37.801188 ] } },
{ "type": "Feature", "properties": { "id": 321, "stop_id": 4106, "stop_code": 14106, "stop_name": "Columbus Ave & Francisco St   ", "stop_desc": " ", "stop_lat": 37.804517, "stop_lon": -122.416167, "zone_id": " ", "stop_url": null }, "geometry": { "type": "Point", "coordinates": [ -122.416167, 37.804517 ] } },
{ "type": "Feature", "properties": { "id": 322, "stop_id": 4107, "stop_code": 14107, "stop_name": "Columbus Ave & Francisco St  ", "stop_desc": " ", "stop_lat": 37.804205, "stop_lon": -122.415973, "zone_id": " ", "stop_url": null }, "geometry": { "type": "Point", "coordinates": [ -122.415973, 37.804205 ] } },
{ "type": "Feature", "properties": { "id": 323, "stop_id": 4114, "stop_code": 14114, "stop_name": "Columbus Ave & Lombard St  ", "stop_desc": " ", "stop_lat": 37.802598, "stop_lon": -122.413646, "zone_id": " ", "stop_url": null }, "geometry": { "type": "Point", "coordinates": [ -122.413646, 37.802598 ] } },
{ "type": "Feature", "properties": { "id": 324, "stop_id": 4115, "stop_code": 14115, "stop_name": "Columbus Ave & Mason St   ", "stop_desc": " ", "stop_lat": 37.802089, "stop_lon": -122.41266, "zone_id": " ", "stop_url": null }, "geometry": { "type": "Point", "coordinates": [ -122.41266, 37.802089 ] } },
{ "type": "Feature", "properties": { "id": 325, "stop_id": 4116, "stop_code": 14116, "stop_name": "Columbus Ave & North Point St ", "stop_desc": " ", "stop_lat": 37.80549, "stop_lon": -122.417589, "zone_id": " ", "stop_url": null }, "geometry": { "type": "Point", "coordinates": [ -122.417589, 37.80549 ] } },
{ "type": "Feature", "properties": { "id": 326, "stop_id": 4118, "stop_code": 14118, "stop_name": "Columbus Ave & Taylor St   ", "stop_desc": " ", "stop_lat": 37.803285, "stop_lon": -122.414643, "zone_id": " ", "stop_url": null }, "geometry": { "type": "Point", "coordinates": [ -122.414643, 37.803285 ] } },
{ "type": "Feature", "properties": { "id": 327, "stop_id": 4119, "stop_code": 14119, "stop_name": "Columbus Ave & Union St  ", "stop_desc": " ", "stop_lat": 37.8005, "stop_lon": -122.410356, "zone_id": " ", "stop_url": null }, "geometry": { "type": "Point", "coordinates": [ -122.410356, 37.8005 ] } },
{ "type": "Feature", "properties": { "id": 328, "stop_id": 4120, "stop_code": 14120, "stop_name": "Columbus Ave & Union St  ", "stop_desc": " ", "stop_lat": 37.800384, "stop_lon": -122.410505, "zone_id": " ", "stop_url": null }, "geometry": { "type": "Point", "coordinates": [ -122.410505, 37.800384 ] } },